[
  {
    "country": "JPN",
    "id": 1,
    "latitude": 35.686962764371174,
    "longitude": 139.74946157054467,
    "name": "Tokyo",
    "pop_avg": 22006299.5,
    "pop_max": 35676000,
    "pop_min": 8336599,
    "rank": 1,
    "wiki": "Q1490",
    "zone": "Tokyo"
  },
  {
    "country": "IND",
    "id": 2,
    "latitude": 19.0189362343566,
    "longitude": 72.85504343876647,
    "name": "Mumbai",
    "pop_avg": 15834918.0,
    "pop_max": 18978000,
    "pop_min": 12691836,
    "rank": 1,
    "wiki": "Q1156",
    "zone": "Maharashtra"
  },
  {
    "country": "MEX",
    "id": 3,
    "latitude": 19.444388301415472,
    "longitude": -99.1329340602939,
    "name": "Mexico City",
    "pop_avg": 14919501.0,
    "pop_max": 19028000,
    "pop_min": 10811002,
    "rank": 1,
    "wiki": "Q1489",
    "zone": "Distrito Federal"
  },
  {
    "country": "CHN",
    "id": 4,
    "latitude": 31.218398311228327,
    "longitude": 121.43455881982015,
    "name": "Shanghai",
    "pop_avg": 14797756.0,
    "pop_max": 14987000,
    "pop_min": 14608512,
    "rank": 1,
    "wiki": "Q8686",
    "zone": "Shanghai"
  },
  {
    "country": "BRA",
    "id": 5,
    "latitude": -23.55673372837896,
    "longitude": -46.62696583905523,
    "name": "S\u00e3o Paulo",
    "pop_avg": 14433147.5,
    "pop_max": 18845000,
    "pop_min": 10021295,
    "rank": 1,
    "wiki": "Q174",
    "zone": "S\u00e3o Paulo"
  },
  {
    "country": "USA",
    "id": 6,
    "latitude": 40.75192492259464,
    "longitude": -73.98196278740681,
    "name": "New York",
    "pop_avg": 13524139.0,
    "pop_max": 19040000,
    "pop_min": 8008278,
    "rank": 1,
    "wiki": "Q60",
    "zone": "New York"
  },
  {
    "country": "RUS",
    "id": 7,
    "latitude": 55.75410998124818,
    "longitude": 37.6135769672714,
    "name": "Moscow",
    "pop_avg": 10452000.0,
    "pop_max": 10452000,
    "pop_min": 10452000,
    "rank": 1,
    "wiki": "Q649",
    "zone": "Moskva"
  },
  {
    "country": "TUR",
    "id": 8,
    "latitude": 41.10694201243979,
    "longitude": 29.008055727002613,
    "name": "Istanbul",
    "pop_avg": 10003305.0,
    "pop_max": 10061000,
    "pop_min": 9945610,
    "rank": 1,
    "wiki": "Q406",
    "zone": "Istanbul"
  },
  {
    "country": "EGY",
    "id": 9,
    "latitude": 30.051906205103705,
    "longitude": 31.248022361126118,
    "name": "Cairo",
    "pop_avg": 9813807.0,
    "pop_max": 11893000,
    "pop_min": 7734614,
    "rank": 1,
    "wiki": "Q85",
    "zone": "Al Qahirah"
  },
  {
    "country": "IND",
    "id": 10,
    "latitude": 22.49691515689642,
    "longitude": 88.32272979950551,
    "name": "Kolkata",
    "pop_avg": 9709196.0,
    "pop_max": 14787000,
    "pop_min": 4631392,
    "rank": 1,
    "wiki": "Q1348",
    "zone": "West Bengal"
  },
  {
    "country": "CHN",
    "id": 11,
    "latitude": 39.93083808990906,
    "longitude": 116.38633982565943,
    "name": "Beijing",
    "pop_avg": 9293300.5,
    "pop_max": 11106000,
    "pop_min": 7480601,
    "rank": 1,
    "wiki": "Q956",
    "zone": "Beijing"
  },
  {
    "country": "IDN",
    "id": 12,
    "latitude": -6.172471846798885,
    "longitude": 106.82749176247012,
    "name": "Jakarta",
    "pop_avg": 8832560.5,
    "pop_max": 9125000,
    "pop_min": 8540121,
    "rank": 1,
    "wiki": "Q3630",
    "zone": "Jakarta Raya"
  },
  {
    "country": "USA",
    "id": 13,
    "latitude": 33.99192410876543,
    "longitude": -118.18192636994041,
    "name": "Los Angeles",
    "pop_avg": 8097410.0,
    "pop_max": 12500000,
    "pop_min": 3694820,
    "rank": 1,
    "wiki": "Q65",
    "zone": "California"
  },
  {
    "country": "GBR",
    "id": 14,
    "latitude": 51.5019405883275,
    "longitude": -0.11866770247593195,
    "name": "London",
    "pop_avg": 7994104.5,
    "pop_max": 8567000,
    "pop_min": 7421209,
    "rank": 1,
    "wiki": "Q84",
    "zone": "Westminster"
  },
  {
    "country": "COL",
    "id": 15,
    "latitude": 4.598369421147822,
    "longitude": -74.08528981377441,
    "name": "Bogota",
    "pop_avg": 7052830.5,
    "pop_max": 7772000,
    "pop_min": 6333661,
    "rank": 1,
    "wiki": "Q2841",
    "zone": "Bogota"
  },
  {
    "country": "CHN",
    "id": 16,
    "latitude": 22.30692675357551,
    "longitude": 114.18306345846304,
    "name": "Hong Kong",
    "pop_avg": 5878789.5,
    "pop_max": 7206000,
    "pop_min": 4551579,
    "rank": 1,
    "wiki": "Q8646",
    "zone": ""
  },
  {
    "country": "FRA",
    "id": 17,
    "latitude": 48.86863878981461,
    "longitude": 2.33138946713035,
    "name": "Paris",
    "pop_avg": 4957588.5,
    "pop_max": 9904000,
    "pop_min": 11177,
    "rank": 1,
    "wiki": "Q90",
    "zone": "\u00cele-de-France"
  },
  {
    "country": "NGA",
    "id": 18,
    "latitude": 6.445207512093191,
    "longitude": 3.3895852125984334,
    "name": "Lagos",
    "pop_avg": 4733768.0,
    "pop_max": 9466000,
    "pop_min": 1536,
    "rank": 1,
    "wiki": "Q8673",
    "zone": "Lagos"
  },
  {
    "country": "SAU",
    "id": 19,
    "latitude": 24.642779007816443,
    "longitude": 46.770795798688255,
    "name": "Riyadh",
    "pop_avg": 4335480.5,
    "pop_max": 4465000,
    "pop_min": 4205961,
    "rank": 1,
    "wiki": "Q3692",
    "zone": "Ar Riyad"
  },
  {
    "country": "SGP",
    "id": 20,
    "latitude": 1.2949793251059418,
    "longitude": 103.85387481909902,
    "name": "Singapore",
    "pop_avg": 4236614.5,
    "pop_max": 5183700,
    "pop_min": 3289529,
    "rank": 1,
    "wiki": "Q334",
    "zone": ""
  },
  {
    "country": "AUS",
    "id": 21,
    "latitude": -33.91806510862875,
    "longitude": 151.1832339501475,
    "name": "Sydney",
    "pop_avg": 4135711.0,
    "pop_max": 4630000,
    "pop_min": 3641422,
    "rank": 1,
    "wiki": "Q3130",
    "zone": "New South Wales"
  },
  {
    "country": "CHL",
    "id": 22,
    "latitude": -33.448067956934096,
    "longitude": -70.66898671317483,
    "name": "Santiago",
    "pop_avg": 2883305.5,
    "pop_max": 5720000,
    "pop_min": 46611,
    "rank": 1,
    "wiki": "Q2887",
    "zone": "Regi\u00f3n Metropolitana de Santiago"
  },
  {
    "country": "KEN",
    "id": 23,
    "latitude": -1.2814008832377795,
    "longitude": 36.81471100047145,
    "name": "Nairobi",
    "pop_avg": 2880273.5,
    "pop_max": 3010000,
    "pop_min": 2750547,
    "rank": 1,
    "wiki": "Q3870",
    "zone": "Nairobi"
  },
  {
    "country": "ZAF",
    "id": 24,
    "latitude": -33.91806510862875,
    "longitude": 18.43304229922603,
    "name": "Cape Town",
    "pop_avg": 2823929.0,
    "pop_max": 3215000,
    "pop_min": 2432858,
    "rank": 1,
    "wiki": "Q5465",
    "zone": "Western Cape"
  },
  {
    "country": "ESP",
    "id": 25,
    "latitude": 40.40197212311381,
    "longitude": -3.6852975446125242,
    "name": "Madrid",
    "pop_avg": 2808718.5,
    "pop_max": 5567000,
    "pop_min": 50437,
    "rank": 1,
    "wiki": "Q2807",
    "zone": "Comunidad de Madrid"
  },
  {
    "country": "ITA",
    "id": 26,
    "latitude": 41.89790148509894,
    "longitude": 12.481312562873995,
    "name": "Rome",
    "pop_avg": 1687226.0,
    "pop_max": 3339000,
    "pop_min": 35452,
    "rank": 1,
    "wiki": "Q220",
    "zone": "Lazio"
  },
  {
    "country": "CAN",
    "id": 27,
    "latitude": 49.27536244271175,
    "longitude": -123.1235900763943,
    "name": "Vancouver",
    "pop_avg": 1458415.0,
    "pop_max": 2313328,
    "pop_min": 603502,
    "rank": 1,
    "wiki": "Q24639",
    "zone": "British Columbia"
  },
  {
    "country": "IND",
    "id": 28,
    "latitude": 28.600023009245433,
    "longitude": 77.19998002005303,
    "name": "New Delhi",
    "pop_avg": 317797.0,
    "pop_max": 317797,
    "pop_min": 317797,
    "rank": 1,
    "wiki": "Q987",
    "zone": "Delhi"
  },
  {
    "country": "ARG",
    "id": 29,
    "latitude": -34.600555749907414,
    "longitude": -58.399477232331435,
    "name": "Buenos Aires",
    "pop_avg": 11862073.0,
    "pop_max": 12795000,
    "pop_min": 10929146,
    "rank": 2,
    "wiki": "Q1486",
    "zone": "Ciudad de Buenos Aires"
  },
  {
    "country": "KOR",
    "id": 30,
    "latitude": 37.56829495838895,
    "longitude": 126.99778513820195,
    "name": "Seoul",
    "pop_avg": 9796000.0,
    "pop_max": 9796000,
    "pop_min": 9796000,
    "rank": 2,
    "wiki": "Q8684",
    "zone": "Seoul"
  },
  {
    "country": "IRN",
    "id": 31,
    "latitude": 35.673888627001304,
    "longitude": 51.42239817500899,
    "name": "Tehran",
    "pop_avg": 7513154.5,
    "pop_max": 7873000,
    "pop_min": 7153309,
    "rank": 2,
    "wiki": "Q3616",
    "zone": "Tehran"
  },
  {
    "country": "PER",
    "id": 32,
    "latitude": -12.04606681752557,
    "longitude": -77.05200795343472,
    "name": "Lima",
    "pop_avg": 7385117.0,
    "pop_max": 8012000,
    "pop_min": 6758234,
    "rank": 2,
    "wiki": "Q2868",
    "zone": "Lima"
  },
  {
    "country": "PHL",
    "id": 33,
    "latitude": 14.606104813440538,
    "longitude": 120.9802713035424,
    "name": "Manila",
    "pop_avg": 7088787.5,
    "pop_max": 11100000,
    "pop_min": 3077575,
    "rank": 2,
    "wiki": "Q1461",
    "zone": "Metropolitan Manila"
  },
  {
    "country": "JPN",
    "id": 34,
    "latitude": 34.75198107491417,
    "longitude": 135.4581989565952,
    "name": "\u014csaka",
    "pop_avg": 6943206.5,
    "pop_max": 11294000,
    "pop_min": 2592413,
    "rank": 2,
    "wiki": "Q35765",
    "zone": "Osaka"
  },
  {
    "country": "BRA",
    "id": 35,
    "latitude": -22.923077315615956,
    "longitude": -43.22696665284366,
    "name": "Rio de Janeiro",
    "pop_avg": 6879087.5,
    "pop_max": 11748000,
    "pop_min": 2010175,
    "rank": 2,
    "wiki": "Q8678",
    "zone": "Rio de Janeiro"
  },
  {
    "country": "COD",
    "id": 36,
    "latitude": -4.327778243275986,
    "longitude": 15.313026023171744,
    "name": "Kinshasa",
    "pop_avg": 6704351.5,
    "pop_max": 7843000,
    "pop_min": 5565703,
    "rank": 2,
    "wiki": "Q3838",
    "zone": "Kinshasa City"
  },
  {
    "country": "IND",
    "id": 37,
    "latitude": 12.97194099507442,
    "longitude": 77.55806386521755,
    "name": "Bangalore",
    "pop_avg": 5945523.5,
    "pop_max": 6787000,
    "pop_min": 5104047,
    "rank": 2,
    "wiki": "Q1355",
    "zone": "Karnataka"
  },
  {
    "country": "USA",
    "id": 38,
    "latitude": 41.83193651927843,
    "longitude": -87.75200083270931,
    "name": "Chicago",
    "pop_avg": 5915976.0,
    "pop_max": 8990000,
    "pop_min": 2841952,
    "rank": 2,
    "wiki": "Q1297",
    "zone": "Illinois"
  },
  {
    "country": "THA",
    "id": 39,
    "latitude": 13.751945064087977,
    "longitude": 100.51469879369489,
    "name": "Bangkok",
    "pop_avg": 5904238.0,
    "pop_max": 6704000,
    "pop_min": 5104476,
    "rank": 2,
    "wiki": "Q1861",
    "zone": "Bangkok Metropolis"
  },
  {
    "country": "IRQ",
    "id": 40,
    "latitude": 33.34059435615865,
    "longitude": 44.391922914564134,
    "name": "Baghdad",
    "pop_avg": 5054000.0,
    "pop_max": 5054000,
    "pop_min": 5054000,
    "rank": 2,
    "wiki": "Q1530",
    "zone": "Baghdad"
  },
  {
    "country": "CHN",
    "id": 41,
    "latitude": 25.0358333333333,
    "longitude": 121.568333333333,
    "name": "Taipei",
    "pop_avg": 4759522.5,
    "pop_max": 6900273,
    "pop_min": 2618772,
    "rank": 2,
    "wiki": "Q1867",
    "zone": "Taipei City"
  },
  {
    "country": "CAN",
    "id": 42,
    "latitude": 43.70192573640844,
    "longitude": -79.42196665298843,
    "name": "Toronto",
    "pop_avg": 4573710.5,
    "pop_max": 5213000,
    "pop_min": 3934421,
    "rank": 2,
    "wiki": "Q172",
    "zone": "Ontario"
  },
  {
    "country": "USA",
    "id": 43,
    "latitude": 29.821920243188856,
    "longitude": -95.341925149146,
    "name": "Houston",
    "pop_avg": 4053287.0,
    "pop_max": 4459000,
    "pop_min": 3647574,
    "rank": 2,
    "wiki": "Q16555",
    "zone": "Texas"
  },
  {
    "country": "CHN",
    "id": 44,
    "latitude": 30.671945877957796,
    "longitude": 104.06807363094873,
    "name": "Chengdu",
    "pop_avg": 4036718.5,
    "pop_max": 4123000,
    "pop_min": 3950437,
    "rank": 2,
    "wiki": "Q30002",
    "zone": "Sichuan"
  },
  {
    "country": "DEU",
    "id": 45,
    "latitude": 52.523764522251156,
    "longitude": 13.399602764700546,
    "name": "Berlin",
    "pop_avg": 3250007.0,
    "pop_max": 3406000,
    "pop_min": 3094014,
    "rank": 2,
    "wiki": "Q64",
    "zone": "Berlin"
  },
  {
    "country": "MAR",
    "id": 46,
    "latitude": 33.60192207425848,
    "longitude": -7.618313291698712,
    "name": "Casablanca",
    "pop_avg": 3162954.5,
    "pop_max": 3181000,
    "pop_min": 3144909,
    "rank": 2,
    "wiki": "Q7903",
    "zone": "Grand Casablanca"
  },
  {
    "country": "AFG",
    "id": 47,
    "latitude": 34.51863614490031,
    "longitude": 69.18131419070505,
    "name": "Kabul",
    "pop_avg": 3160266.0,
    "pop_max": 3277000,
    "pop_min": 3043532,
    "rank": 2,
    "wiki": "Q5838",
    "zone": "Kabul"
  },
  {
    "country": "CAN",
    "id": 48,
    "latitude": 45.50194506421502,
    "longitude": -73.58524281670213,
    "name": "Montr\u00e9al",
    "pop_avg": 3017278.0,
    "pop_max": 3678000,
    "pop_min": 2356556,
    "rank": 2,
    "wiki": "Q340",
    "zone": "Qu\u00e9bec"
  },
  {
    "country": "USA",
    "id": 49,
    "latitude": 25.789556555021534,
    "longitude": -80.22605193945003,
    "name": "Miami",
    "pop_avg": 2983947.0,
    "pop_max": 5585000,
    "pop_min": 382894,
    "rank": 2,
    "wiki": "Q8652",
    "zone": "Florida"
  },
  {
    "country": "ETH",
    "id": 50,
    "latitude": 9.035256221295754,
    "longitude": 38.69805857534868,
    "name": "Addis Ababa",
    "pop_avg": 2928864.5,
    "pop_max": 3100000,
    "pop_min": 2757729,
    "rank": 2,
    "wiki": "Q3624",
    "zone": "Addis Ababa"
  },
  {
    "country": "ZAF",
    "id": 51,
    "latitude": -26.16809888138414,
    "longitude": 28.028063865019476,
    "name": "Johannesburg",
    "pop_avg": 2730734.5,
    "pop_max": 3435000,
    "pop_min": 2026469,
    "rank": 2,
    "wiki": "Q34647",
    "zone": "Gauteng"
  },
  {
    "country": "SEN",
    "id": 52,
    "latitude": 14.717777583623274,
    "longitude": -17.47507598705056,
    "name": "Dakar",
    "pop_avg": 2540200.0,
    "pop_max": 2604000,
    "pop_min": 2476400,
    "rank": 2,
    "wiki": "Q3718",
    "zone": "Dakar"
  },
  {
    "country": "USA",
    "id": 53,
    "latitude": 33.83195971260585,
    "longitude": -84.40189524187565,
    "name": "Atlanta",
    "pop_avg": 2464454.0,
    "pop_max": 4506000,
    "pop_min": 422908,
    "rank": 2,
    "wiki": "Q23556",
    "zone": "Georgia"
  },
  {
    "country": "USA",
    "id": 54,
    "latitude": 38.901495235087054,
    "longitude": -77.01136443943716,
    "name": "Washington, D.C.",
    "pop_avg": 2445216.5,
    "pop_max": 4338000,
    "pop_min": 552433,
    "rank": 2,
    "wiki": "Q61",
    "zone": "District of Columbia"
  },
  {
    "country": "MEX",
    "id": 55,
    "latitude": 25.671940995125283,
    "longitude": -100.33193064232995,
    "name": "Monterrey",
    "pop_avg": 2417437.0,
    "pop_max": 3712000,
    "pop_min": 1122874,
    "rank": 2,
    "wiki": "Q81033",
    "zone": "Nuevo Le\u00f3n"
  },
  {
    "country": "VEN",
    "id": 56,
    "latitude": 10.502944413033333,
    "longitude": -66.91898305105042,
    "name": "Caracas",
    "pop_avg": 2400339.5,
    "pop_max": 2985000,
    "pop_min": 1815679,
    "rank": 2,
    "wiki": "Q1533",
    "zone": "Distrito Capital"
  },
  {
    "country": "UKR",
    "id": 57,
    "latitude": 50.43531318760722,
    "longitude": 30.514682110472165,
    "name": "Kiev",
    "pop_avg": 2185754.0,
    "pop_max": 2709000,
    "pop_min": 1662508,
    "rank": 2,
    "wiki": "Q1899",
    "zone": "Kiev"
  },
  {
    "country": "AUS",
    "id": 58,
    "latitude": -37.81808545369631,
    "longitude": 144.97307037590406,
    "name": "Melbourne",
    "pop_avg": 2131812.5,
    "pop_max": 4170000,
    "pop_min": 93625,
    "rank": 2,
    "wiki": "Q3141",
    "zone": "Victoria"
  },
  {
    "country": "USA",
    "id": 59,
    "latitude": 37.76919562968743,
    "longitude": -122.41716877355225,
    "name": "San Francisco",
    "pop_avg": 2091036.0,
    "pop_max": 3450000,
    "pop_min": 732072,
    "rank": 2,
    "wiki": "Q62",
    "zone": "California"
  },
  {
    "country": "UZB",
    "id": 60,
    "latitude": 41.31364774160721,
    "longitude": 69.29298696088779,
    "name": "Tashkent",
    "pop_avg": 2081014.0,
    "pop_max": 2184000,
    "pop_min": 1978028,
    "rank": 2,
    "wiki": "Q269",
    "zone": "Tashkent"
  },
  {
    "country": "AUT",
    "id": 61,
    "latitude": 48.20196113681686,
    "longitude": 16.364693096743736,
    "name": "Vienna",
    "pop_avg": 2065500.0,
    "pop_max": 2400000,
    "pop_min": 1731000,
    "rank": 2,
    "wiki": "Q1741",
    "zone": "Wien"
  },
  {
    "country": "GRC",
    "id": 62,
    "latitude": 37.98527209055226,
    "longitude": 23.731375225679358,
    "name": "Athens",
    "pop_avg": 1985568.5,
    "pop_max": 3242000,
    "pop_min": 729137,
    "rank": 2,
    "wiki": "Q1524",
    "zone": "Attiki"
  },
  {
    "country": "USA",
    "id": 63,
    "latitude": 39.7411339069655,
    "longitude": -104.9859618109682,
    "name": "Denver",
    "pop_avg": 1930799.5,
    "pop_max": 2313000,
    "pop_min": 1548599,
    "rank": 2,
    "wiki": "Q16554",
    "zone": "Colorado"
  },
  {
    "country": "CHN",
    "id": 64,
    "latitude": 43.8069580850418,
    "longitude": 87.57305979624726,
    "name": "\u00dcr\u00fcmqi",
    "pop_avg": 1829612.5,
    "pop_max": 2151000,
    "pop_min": 1508225,
    "rank": 2,
    "wiki": "Q16959",
    "zone": "Xinjiang Uygur"
  },
  {
    "country": "SWE",
    "id": 65,
    "latitude": 59.35270581286585,
    "longitude": 18.095388874180912,
    "name": "Stockholm",
    "pop_avg": 1258654.5,
    "pop_max": 1264000,
    "pop_min": 1253309,
    "rank": 2,
    "wiki": "Q1754",
    "zone": "Stockholm"
  },
  {
    "country": "ARE",
    "id": 66,
    "latitude": 25.231942012376066,
    "longitude": 55.27802846473787,
    "name": "Dubai",
    "pop_avg": 1258173.5,
    "pop_max": 1379000,
    "pop_min": 1137347,
    "rank": 2,
    "wiki": "Q612",
    "zone": "Dubay"
  },
  {
    "country": "NZL",
    "id": 67,
    "latitude": -36.848054894932005,
    "longitude": 174.76302698707957,
    "name": "Auckland",
    "pop_avg": 886591.0,
    "pop_max": 1377200,
    "pop_min": 395982,
    "rank": 2,
    "wiki": "Q37100",
    "zone": "Auckland"
  },
  {
    "country": "NLD",
    "id": 68,
    "latitude": 52.35191454666443,
    "longitude": 4.914694317400972,
    "name": "Amsterdam",
    "pop_avg": 886318.0,
    "pop_max": 1031000,
    "pop_min": 741636,
    "rank": 2,
    "wiki": "Q727",
    "zone": "Noord-Holland"
  },
  {
    "country": "CHE",
    "id": 69,
    "latitude": 46.21000754707626,
    "longitude": 6.140028034091699,
    "name": "Geneva",
    "pop_avg": 716192.5,
    "pop_max": 1240000,
    "pop_min": 192385,
    "rank": 2,
    "wiki": "Q71",
    "zone": "Gen\u00e8ve"
  },
  {
    "country": "PAK",
    "id": 70,
    "latitude": 24.87193814681484,
    "longitude": 66.98806305137339,
    "name": "Karachi",
    "pop_avg": 11877109.5,
    "pop_max": 12130000,
    "pop_min": 11624219,
    "rank": 3,
    "wiki": "Q8660",
    "zone": "Sind"
  },
  {
    "country": "BGD",
    "id": 71,
    "latitude": 23.725005570312817,
    "longitude": 90.40663360810754,
    "name": "Dhaka",
    "pop_avg": 9899167.0,
    "pop_max": 12797394,
    "pop_min": 7000940,
    "rank": 3,
    "wiki": "Q1354",
    "zone": "Dhaka"
  },
  {
    "country": "PAK",
    "id": 72,
    "latitude": 31.56191739488844,
    "longitude": 74.34807892054346,
    "name": "Lahore",
    "pop_avg": 6443944.0,
    "pop_max": 6577000,
    "pop_min": 6310888,
    "rank": 3,
    "wiki": "Q11739",
    "zone": "Punjab"
  },
  {
    "country": "CHN",
    "id": 73,
    "latitude": 23.14692716047989,
    "longitude": 113.32306427226172,
    "name": "Guangzhou",
    "pop_avg": 5990912.5,
    "pop_max": 8829000,
    "pop_min": 3152825,
    "rank": 3,
    "wiki": "Q16572",
    "zone": "Guangdong"
  },
  {
    "country": "IND",
    "id": 74,
    "latitude": 13.091933670856292,
    "longitude": 80.27805287890033,
    "name": "Chennai",
    "pop_avg": 5745531.5,
    "pop_max": 7163000,
    "pop_min": 4328063,
    "rank": 3,
    "wiki": "Q1352",
    "zone": "Tamil Nadu"
  },
  {
    "country": "CHN",
    "id": 75,
    "latitude": 30.581977209337822,
    "longitude": 114.26807118958311,
    "name": "Wuhan",
    "pop_avg": 5713603.0,
    "pop_max": 7243000,
    "pop_min": 4184206,
    "rank": 3,
    "wiki": "Q11746",
    "zone": "Hubei"
  },
  {
    "country": "CHN",
    "id": 76,
    "latitude": 39.13197212310894,
    "longitude": 117.19807322410043,
    "name": "Tianjin",
    "pop_avg": 5473103.5,
    "pop_max": 7180000,
    "pop_min": 3766207,
    "rank": 3,
    "wiki": "Q11736",
    "zone": "Tianjin"
  },
  {
    "country": "CHN",
    "id": 77,
    "latitude": 29.566922888044644,
    "longitude": 106.59303578916195,
    "name": "Chongqing",
    "pop_avg": 5214014.0,
    "pop_max": 6461000,
    "pop_min": 3967028,
    "rank": 3,
    "wiki": "Q11725",
    "zone": "Chongqing"
  },
  {
    "country": "IND",
    "id": 78,
    "latitude": 17.401928991511454,
    "longitude": 78.47800771287751,
    "name": "Hyderabad",
    "pop_avg": 4986908.0,
    "pop_max": 6376000,
    "pop_min": 3597816,
    "rank": 3,
    "wiki": "Q1361",
    "zone": "Andhra Pradesh"
  },
  {
    "country": "IND",
    "id": 79,
    "latitude": 23.031998775062675,
    "longitude": 72.57805776168215,
    "name": "Ahmedabad",
    "pop_avg": 4547355.0,
    "pop_max": 5375000,
    "pop_min": 3719710,
    "rank": 3,
    "wiki": "Q1070",
    "zone": "Dadra and Nagar Haveli"
  },
  {
    "country": "VNM",
    "id": 80,
    "latitude": 10.781971309193409,
    "longitude": 106.69308136207889,
    "name": "Ho Chi Minh City",
    "pop_avg": 4390665.5,
    "pop_max": 5314000,
    "pop_min": 3467331,
    "rank": 3,
    "wiki": "Q1854",
    "zone": "H? Ch\u00ed Minh city"
  },
  {
    "country": "BGD",
    "id": 81,
    "latitude": 22.33193814680459,
    "longitude": 91.79802154756635,
    "name": "Chittagong",
    "pop_avg": 4224611.0,
    "pop_max": 4529000,
    "pop_min": 3920222,
    "rank": 3,
    "wiki": "Q376749",
    "zone": "Chittagong"
  },
  {
    "country": "CHN",
    "id": 82,
    "latitude": 41.80692512604918,
    "longitude": 123.44802765120869,
    "name": "Shenyeng",
    "pop_avg": 4149596.0,
    "pop_max": 4787000,
    "pop_min": 3512192,
    "rank": 3,
    "wiki": "Q11720",
    "zone": "Liaoning"
  },
  {
    "country": "RUS",
    "id": 83,
    "latitude": 59.94096036375191,
    "longitude": 30.314074200315076,
    "name": "St. Petersburg",
    "pop_avg": 4023106.0,
    "pop_max": 4553000,
    "pop_min": 3493212,
    "rank": 3,
    "wiki": "Q656",
    "zone": "City of St. Petersburg"
  },
  {
    "country": "EGY",
    "id": 84,
    "latitude": 31.201965205759393,
    "longitude": 29.948050030391755,
    "name": "Alexandria",
    "pop_avg": 3988258.0,
    "pop_max": 4165000,
    "pop_min": 3811516,
    "rank": 3,
    "wiki": "Q87",
    "zone": "Al Iskandariyah"
  },
  {
    "country": "IND",
    "id": 85,
    "latitude": 18.531963374654026,
    "longitude": 73.84805776168719,
    "name": "Pune",
    "pop_avg": 3803872.0,
    "pop_max": 4672000,
    "pop_min": 2935744,
    "rank": 3,
    "wiki": "Q1538",
    "zone": "Maharashtra"
  },
  {
    "country": "MMR",
    "id": 86,
    "latitude": 16.785299963188777,
    "longitude": 96.16473175266185,
    "name": "Rangoon",
    "pop_avg": 3694910.0,
    "pop_max": 4088000,
    "pop_min": 3301820,
    "rank": 3,
    "wiki": "Q37995",
    "zone": "Yangon"
  },
  {
    "country": "CHN",
    "id": 87,
    "latitude": 34.27697130928732,
    "longitude": 108.89305043760862,
    "name": "Xian",
    "pop_avg": 3617406.0,
    "pop_max": 4009000,
    "pop_min": 3225812,
    "rank": 3,
    "wiki": "Q5826",
    "zone": "Shaanxi"
  },
  {
    "country": "AGO",
    "id": 88,
    "latitude": -8.836340255012658,
    "longitude": 13.23248118266855,
    "name": "Luanda",
    "pop_avg": 3562086.0,
    "pop_max": 5172900,
    "pop_min": 1951272,
    "rank": 3,
    "wiki": "Q3897",
    "zone": "Luanda"
  },
  {
    "country": "TUR",
    "id": 89,
    "latitude": 39.929184444075474,
    "longitude": 32.862445782356644,
    "name": "Ankara",
    "pop_avg": 3511689.5,
    "pop_max": 3716000,
    "pop_min": 3307379,
    "rank": 3,
    "wiki": "Q3640",
    "zone": "Ankara"
  },
  {
    "country": "USA",
    "id": 90,
    "latitude": 40.001919022526465,
    "longitude": -75.17194183200792,
    "name": "Philadelphia",
    "pop_avg": 3504775.0,
    "pop_max": 5492000,
    "pop_min": 1517550,
    "rank": 3,
    "wiki": "Q1345",
    "zone": "Pennsylvania"
  },
  {
    "country": "CIV",
    "id": 91,
    "latitude": 5.321942826098564,
    "longitude": -4.041994118507091,
    "name": "Abidjan",
    "pop_avg": 3496197.5,
    "pop_max": 3802000,
    "pop_min": 3190395,
    "rank": 3,
    "wiki": "Q1515",
    "zone": "Lagunes"
  },
  {
    "country": "CHN",
    "id": 92,
    "latitude": 45.75192980542715,
    "longitude": 126.64803904445057,
    "name": "Harbin",
    "pop_avg": 3425441.5,
    "pop_max": 3621000,
    "pop_min": 3229883,
    "rank": 3,
    "wiki": "Q42956",
    "zone": "Heilongjiang"
  },
  {
    "country": "CHN",
    "id": 93,
    "latitude": 32.05196500231233,
    "longitude": 118.77802846499208,
    "name": "Nanjing",
    "pop_avg": 3383005.0,
    "pop_max": 3679000,
    "pop_min": 3087010,
    "rank": 3,
    "wiki": "Q16666",
    "zone": "Jiangsu"
  },
  {
    "country": "IND",
    "id": 94,
    "latitude": 21.20192960187819,
    "longitude": 72.83809356897484,
    "name": "Surat",
    "pop_avg": 3368252.0,
    "pop_max": 3842000,
    "pop_min": 2894504,
    "rank": 3,
    "wiki": "Q4629",
    "zone": "Dadra and Nagar Haveli"
  },
  {
    "country": "SDN",
    "id": 95,
    "latitude": 15.590024084277673,
    "longitude": 32.532233380011576,
    "name": "Khartoum",
    "pop_avg": 3364323.5,
    "pop_max": 4754000,
    "pop_min": 1974647,
    "rank": 3,
    "wiki": "Q1963",
    "zone": "Khartoum"
  },
  {
    "country": "ESP",
    "id": 96,
    "latitude": 41.385245438547486,
    "longitude": 2.181424460619155,
    "name": "Barcelona",
    "pop_avg": 3250797.5,
    "pop_max": 4920000,
    "pop_min": 1581595,
    "rank": 3,
    "wiki": "Q1492",
    "zone": "Catalu\u00f1a"
  },
  {
    "country": "NGA",
    "id": 97,
    "latitude": 12.001922684523606,
    "longitude": 8.518091941113255,
    "name": "Kano",
    "pop_avg": 3140000.0,
    "pop_max": 3140000,
    "pop_min": 3140000,
    "rank": 3,
    "wiki": "Q182984",
    "zone": "Kano"
  },
  {
    "country": "BRA",
    "id": 98,
    "latitude": -15.781394372878992,
    "longitude": -47.91799814700306,
    "name": "Bras\u00edlia",
    "pop_avg": 3139979.5,
    "pop_max": 3716996,
    "pop_min": 2562963,
    "rank": 3,
    "wiki": "Q2844",
    "zone": "Distrito Federal"
  },
  {
    "country": "BRA",
    "id": 99,
    "latitude": -12.968026046044827,
    "longitude": -38.48193328693924,
    "name": "Salvador",
    "pop_avg": 3081422.5,
    "pop_max": 3484000,
    "pop_min": 2678845,
    "rank": 3,
    "wiki": "Q36947",
    "zone": "Bahia"
  },
  {
    "country": "USA",
    "id": 100,
    "latitude": 32.82196968167733,
    "longitude": -96.84196278749818,
    "name": "Dallas",
    "pop_avg": 3004852.0,
    "pop_max": 4798000,
    "pop_min": 1211704,
    "rank": 3,
    "wiki": "Q16557",
    "zone": "Texas"
  },
  {
    "country": "IND",
    "id": 101,
    "latitude": 26.461944453787225,
    "longitude": 80.31805043749438,
    "name": "Kanpur",
    "pop_avg": 2992624.5,
    "pop_max": 3162000,
    "pop_min": 2823249,
    "rank": 3,
    "wiki": "Q66568",
    "zone": "Uttar Pradesh"
  },
  {
    "country": "BRA",
    "id": 102,
    "latitude": -3.7480720258257634,
    "longitude": -38.58192718342411,
    "name": "Fortaleza",
    "pop_avg": 2958717.5,
    "pop_max": 3602319,
    "pop_min": 2315116,
    "rank": 3,
    "wiki": "Q43463",
    "zone": "Cear\u00e1"
  },
  {
    "country": "MEX",
    "id": 103,
    "latitude": 20.671961950508944,
    "longitude": -103.33198008081848,
    "name": "Guadalajara",
    "pop_avg": 2919294.5,
    "pop_max": 4198000,
    "pop_min": 1640589,
    "rank": 3,
    "wiki": "Q9022",
    "zone": "Jalisco"
  },
  {
    "country": "VNM",
    "id": 104,
    "latitude": 21.035273107737055,
    "longitude": 105.8480683412422,
    "name": "Hanoi",
    "pop_avg": 2904635.0,
    "pop_max": 4378000,
    "pop_min": 1431270,
    "rank": 3,
    "wiki": "Q1858",
    "zone": "Th\u00e1i Nguy\u00ean"
  },
  {
    "country": "PRK",
    "id": 105,
    "latitude": 39.02138455800434,
    "longitude": 125.75274485499392,
    "name": "Pyongyang",
    "pop_avg": 2899398.5,
    "pop_max": 3300000,
    "pop_min": 2498797,
    "rank": 3,
    "wiki": "Q18808",
    "zone": "P'yongyang"
  },
  {
    "country": "CHN",
    "id": 106,
    "latitude": 43.86695442293251,
    "longitude": 125.33804148585148,
    "name": "Changchun",
    "pop_avg": 2860210.5,
    "pop_max": 3183000,
    "pop_min": 2537421,
    "rank": 3,
    "wiki": "Q92161",
    "zone": "Jilin"
  },
  {
    "country": "CHN",
    "id": 107,
    "latitude": 37.876958288468416,
    "longitude": 112.54311187968051,
    "name": "Taiyuan",
    "pop_avg": 2817737.5,
    "pop_max": 2913000,
    "pop_min": 2722475,
    "rank": 3,
    "wiki": "Q72778",
    "zone": "Shanxi"
  },
  {
    "country": "IND",
    "id": 108,
    "latitude": 26.92307909734376,
    "longitude": 75.8080414856534,
    "name": "Jaipur",
    "pop_avg": 2814379.0,
    "pop_max": 2917000,
    "pop_min": 2711758,
    "rank": 3,
    "wiki": "Q66485",
    "zone": "Rajasthan"
  },
  {
    "country": "TZA",
    "id": 109,
    "latitude": -6.798066736124383,
    "longitude": 39.26639597769457,
    "name": "Dar es Salaam",
    "pop_avg": 2814326.0,
    "pop_max": 2930000,
    "pop_min": 2698652,
    "rank": 3,
    "wiki": "Q1960",
    "zone": "Dar-Es-Salaam"
  },
  {
    "country": "ZAF",
    "id": 110,
    "latitude": -29.863067143117632,
    "longitude": 30.97806467883339,
    "name": "Durban",
    "pop_avg": 2729000.0,
    "pop_max": 2729000,
    "pop_min": 2729000,
    "rank": 3,
    "wiki": "Q5468",
    "zone": "KwaZulu-Natal"
  },
  {
    "country": "DZA",
    "id": 111,
    "latitude": 36.765010656628135,
    "longitude": 3.048606670909237,
    "name": "Algiers",
    "pop_avg": 2665831.5,
    "pop_max": 3354000,
    "pop_min": 1977663,
    "rank": 3,
    "wiki": "Q3561",
    "zone": "Alger"
  },
  {
    "country": "COL",
    "id": 112,
    "latitude": 6.276949133068513,
    "longitude": -75.57695587009556,
    "name": "Medell\u00edn",
    "pop_avg": 2648489.5,
    "pop_max": 3297000,
    "pop_min": 1999979,
    "rank": 3,
    "wiki": "Q48278",
    "zone": "Antioquia"
  },
  {
    "country": "BRA",
    "id": 113,
    "latitude": -30.048068770722466,
    "longitude": -51.20195790450316,
    "name": "Porto Alegre",
    "pop_avg": 2644870.5,
    "pop_max": 3917000,
    "pop_min": 1372741,
    "rank": 3,
    "wiki": "Q40269",
    "zone": "Rio Grande do Sul"
  },
  {
    "country": "IDN",
    "id": 114,
    "latitude": -7.247289962037485,
    "longitude": 112.7488874330669,
    "name": "Surabaya",
    "pop_avg": 2609829.0,
    "pop_max": 2845000,
    "pop_min": 2374658,
    "rank": 3,
    "wiki": "Q11462",
    "zone": "Jawa Timur"
  },
  {
    "country": "BRA",
    "id": 115,
    "latitude": -8.073699467249241,
    "longitude": -34.91755136960728,
    "name": "Recife",
    "pop_avg": 2564549.0,
    "pop_max": 3651000,
    "pop_min": 1478098,
    "rank": 3,
    "wiki": "Q48344",
    "zone": "Pernambuco"
  },
  {
    "country": "USA",
    "id": 116,
    "latitude": 42.33190600170229,
    "longitude": -71.07195953218684,
    "name": "Boston",
    "pop_avg": 2528070.5,
    "pop_max": 4467000,
    "pop_min": 589141,
    "rank": 3,
    "wiki": "Q100",
    "zone": "Massachusetts"
  },
  {
    "country": "USA",
    "id": 117,
    "latitude": 42.33190600170229,
    "longitude": -83.0820016464927,
    "name": "Detroit",
    "pop_avg": 2526135.0,
    "pop_max": 4101000,
    "pop_min": 951270,
    "rank": 3,
    "wiki": "Q12439",
    "zone": "Michigan"
  },
  {
    "country": "SYR",
    "id": 118,
    "latitude": 33.50197985420613,
    "longitude": 36.29805003041707,
    "name": "Damascus",
    "pop_avg": 2466000.0,
    "pop_max": 2466000,
    "pop_min": 2466000,
    "rank": 3,
    "wiki": "Q3766",
    "zone": "Damascus"
  },
  {
    "country": "CHN",
    "id": 119,
    "latitude": 30.251919836289517,
    "longitude": 120.16807281721094,
    "name": "Hangzhou",
    "pop_avg": 2442564.5,
    "pop_max": 3007000,
    "pop_min": 1878129,
    "rank": 3,
    "wiki": "Q4970",
    "zone": "Zhejiang"
  },
  {
    "country": "USA",
    "id": 120,
    "latitude": 33.5419257363676,
    "longitude": -112.07193755969467,
    "name": "Phoenix",
    "pop_avg": 2436022.5,
    "pop_max": 3551000,
    "pop_min": 1321045,
    "rank": 3,
    "wiki": "Q16556",
    "zone": "Arizona"
  },
  {
    "country": "CHN",
    "id": 121,
    "latitude": 36.67692817778641,
    "longitude": 116.99307281719848,
    "name": "Jinan",
    "pop_avg": 2433633.0,
    "pop_max": 2798000,
    "pop_min": 2069266,
    "rank": 3,
    "wiki": "Q170247",
    "zone": "Shandong"
  },
  {
    "country": "CHN",
    "id": 122,
    "latitude": 26.581988806001448,
    "longitude": 106.7180927553083,
    "name": "Guiyang",
    "pop_avg": 2416816.5,
    "pop_max": 3662000,
    "pop_min": 1171633,
    "rank": 3,
    "wiki": "Q192271",
    "zone": "Guizhou"
  },
  {
    "country": "IND",
    "id": 123,
    "latitude": 21.171905594716634,
    "longitude": 79.0880479960831,
    "name": "Nagpur",
    "pop_avg": 2341009.0,
    "pop_max": 2454000,
    "pop_min": 2228018,
    "rank": 3,
    "wiki": "Q1513",
    "zone": "Maharashtra"
  },
  {
    "country": "CHN",
    "id": 124,
    "latitude": 28.201915767270805,
    "longitude": 112.96804718241651,
    "name": "Changsha",
    "pop_avg": 2338969.0,
    "pop_max": 2604000,
    "pop_min": 2073938,
    "rank": 3,
    "wiki": "Q174091",
    "zone": "Hunan"
  },
  {
    "country": "CHN",
    "id": 125,
    "latitude": 34.7569420124143,
    "longitude": 113.66314687317458,
    "name": "Zhengzhou",
    "pop_avg": 2325062.5,
    "pop_max": 2636000,
    "pop_min": 2014125,
    "rank": 3,
    "wiki": "Q30340",
    "zone": "Henan"
  },
  {
    "country": "IRN",
    "id": 126,
    "latitude": 36.27196581613117,
    "longitude": 59.568050844312324,
    "name": "Mashhad",
    "pop_avg": 2318126.5,
    "pop_max": 2469000,
    "pop_min": 2167253,
    "rank": 3,
    "wiki": "Q121157",
    "zone": "Razavi Khorasan"
  },
  {
    "country": "BRA",
    "id": 127,
    "latitude": -25.418067143099847,
    "longitude": -49.32194345950859,
    "name": "Curitiba",
    "pop_avg": 2291430.0,
    "pop_max": 3084000,
    "pop_min": 1498860,
    "rank": 3,
    "wiki": "Q4361",
    "zone": "Paran\u00e1"
  },
  {
    "country": "CHN",
    "id": 128,
    "latitude": 36.05797371001057,
    "longitude": 103.79005442521844,
    "name": "Lanzhou",
    "pop_avg": 2282609.0,
    "pop_max": 2561000,
    "pop_min": 2004218,
    "rank": 3,
    "wiki": "Q183584",
    "zone": "Gansu"
  },
  {
    "country": "ECU",
    "id": 129,
    "latitude": -2.2180878949601492,
    "longitude": -79.92198781184453,
    "name": "Guayaquil",
    "pop_avg": 2233014.5,
    "pop_max": 2514000,
    "pop_min": 1952029,
    "rank": 3,
    "wiki": "Q43509",
    "zone": "Guayas"
  },
  {
    "country": "COL",
    "id": 130,
    "latitude": 3.401904984294049,
    "longitude": -76.5019123316876,
    "name": "Cali",
    "pop_avg": 2216418.0,
    "pop_max": 2254000,
    "pop_min": 2178836,
    "rank": 3,
    "wiki": "Q51103",
    "zone": "Valle del Cauca"
  },
  {
    "country": "JPN",
    "id": 131,
    "latitude": 43.07692512605422,
    "longitude": 141.33809845206156,
    "name": "Sapporo",
    "pop_avg": 2202893.0,
    "pop_max": 2544000,
    "pop_min": 1861786,
    "rank": 3,
    "wiki": "Q37951",
    "zone": "Hokkaido"
  },
  {
    "country": "SYR",
    "id": 132,
    "latitude": 36.231916581105224,
    "longitude": 37.16807444448318,
    "name": "Aleppo",
    "pop_avg": 2170132.0,
    "pop_max": 2738000,
    "pop_min": 1602264,
    "rank": 3,
    "wiki": "Q41183",
    "zone": "Aleppo (Halab)"
  },
  {
    "country": "ITA",
    "id": 133,
    "latitude": 45.47192105705352,
    "longitude": 9.203063051142124,
    "name": "Milan",
    "pop_avg": 2125830.5,
    "pop_max": 2945000,
    "pop_min": 1306661,
    "rank": 3,
    "wiki": "Q490",
    "zone": "Lombardia"
  },
  {
    "country": "CHN",
    "id": 134,
    "latitude": 28.681938146830078,
    "longitude": 115.8780504376366,
    "name": "Nanchang",
    "pop_avg": 2110675.5,
    "pop_max": 2350000,
    "pop_min": 1871351,
    "rank": 3,
    "wiki": "Q171943",
    "zone": "Jiangxi"
  },
  {
    "country": "CUB",
    "id": 135,
    "latitude": 23.1339046995422,
    "longitude": -82.3661280299533,
    "name": "Havana",
    "pop_avg": 2082458.5,
    "pop_max": 2174000,
    "pop_min": 1990917,
    "rank": 3,
    "wiki": "Q1563",
    "zone": "Ciudad de la Habana"
  },
  {
    "country": "IDN",
    "id": 136,
    "latitude": -6.948083419067757,
    "longitude": 107.56806671364507,
    "name": "Bandung",
    "pop_avg": 2046859.5,
    "pop_max": 2394000,
    "pop_min": 1699719,
    "rank": 3,
    "wiki": "Q10389",
    "zone": "Jawa Barat"
  },
  {
    "country": "GHA",
    "id": 137,
    "latitude": 5.551980464445933,
    "longitude": -0.21866159896069348,
    "name": "Accra",
    "pop_avg": 2042132.0,
    "pop_max": 2121000,
    "pop_min": 1963264,
    "rank": 3,
    "wiki": "Q3761",
    "zone": "Greater Accra"
  },
  {
    "country": "CHN",
    "id": 138,
    "latitude": 25.071925939784478,
    "longitude": 102.67802927872964,
    "name": "Kunming",
    "pop_avg": 1977337.0,
    "pop_max": 2931000,
    "pop_min": 1023674,
    "rank": 3,
    "wiki": "Q182852",
    "zone": "Yunnan"
  },
  {
    "country": "USA",
    "id": 139,
    "latitude": 32.82196968167733,
    "longitude": -117.18193572866028,
    "name": "San Diego",
    "pop_avg": 1938570.5,
    "pop_max": 2916000,
    "pop_min": 961141,
    "rank": 3,
    "wiki": "Q16552",
    "zone": "California"
  },
  {
    "country": "IDN",
    "id": 140,
    "latitude": 3.581919836182749,
    "longitude": 98.64809438288012,
    "name": "Medan",
    "pop_avg": 1932985.5,
    "pop_max": 2115000,
    "pop_min": 1750971,
    "rank": 3,
    "wiki": "Q5972",
    "zone": "Sumatera Utara"
  },
  {
    "country": "YEM",
    "id": 141,
    "latitude": 15.356679154263645,
    "longitude": 44.20464752393843,
    "name": "Sanaa",
    "pop_avg": 1921926.5,
    "pop_max": 2008000,
    "pop_min": 1835853,
    "rank": 3,
    "wiki": "Q2471",
    "zone": "Amanat Al Asimah"
  },
  {
    "country": "CHN",
    "id": 142,
    "latitude": 26.081941808929002,
    "longitude": 119.29810007957747,
    "name": "Fuzhou",
    "pop_avg": 1892860.0,
    "pop_max": 2606000,
    "pop_min": 1179720,
    "rank": 3,
    "wiki": "Q68481",
    "zone": "Fujian"
  },
  {
    "country": "IND",
    "id": 143,
    "latitude": 25.626904984382918,
    "longitude": 85.12809275522181,
    "name": "Patna",
    "pop_avg": 1878960.0,
    "pop_max": 2158000,
    "pop_min": 1599920,
    "rank": 3,
    "wiki": "Q80484",
    "zone": "Bihar"
  },
  {
    "country": "CHN",
    "id": 144,
    "latitude": 36.80193346750053,
    "longitude": 118.04804718243702,
    "name": "Zibo",
    "pop_avg": 1865385.0,
    "pop_max": 3061000,
    "pop_min": 669770,
    "rank": 3,
    "wiki": "Q198370",
    "zone": "Shandong"
  },
  {
    "country": "ROU",
    "id": 145,
    "latitude": 44.43531766349457,
    "longitude": 26.0980007953504,
    "name": "Bucharest",
    "pop_avg": 1842097.0,
    "pop_max": 1942000,
    "pop_min": 1742194,
    "rank": 3,
    "wiki": "Q19660",
    "zone": "Bucharest"
  },
  {
    "country": "USA",
    "id": 146,
    "latitude": 47.57194791253073,
    "longitude": -122.34193084586849,
    "name": "Seattle",
    "pop_avg": 1821684.5,
    "pop_max": 3074000,
    "pop_min": 569369,
    "rank": 3,
    "wiki": "Q5083",
    "zone": "Washington"
  },
  {
    "country": "MEX",
    "id": 147,
    "latitude": 19.051905798158714,
    "longitude": -98.20198313255577,
    "name": "Puebla",
    "pop_avg": 1793549.5,
    "pop_max": 2195000,
    "pop_min": 1392099,
    "rank": 3,
    "wiki": "Q125293",
    "zone": "Puebla"
  },
  {
    "country": "BRA",
    "id": 148,
    "latitude": -1.4480573773789729,
    "longitude": -48.48196889082038,
    "name": "Bel\u00e9m",
    "pop_avg": 1787368.5,
    "pop_max": 2167000,
    "pop_min": 1407737,
    "rank": 3,
    "wiki": "Q47593",
    "zone": "Par\u00e1"
  },
  {
    "country": "DEU",
    "id": 149,
    "latitude": 50.09997682606331,
    "longitude": 8.675015420169643,
    "name": "Frankfurt",
    "pop_avg": 1787332.0,
    "pop_max": 2895000,
    "pop_min": 679664,
    "rank": 3,
    "wiki": "Q1794",
    "zone": "Hessen"
  },
  {
    "country": "VEN",
    "id": 150,
    "latitude": 10.731922684518565,
    "longitude": -71.66192352144697,
    "name": "Maracaibo",
    "pop_avg": 1764650.0,
    "pop_max": 2072000,
    "pop_min": 1457300,
    "rank": 3,
    "wiki": "Q171632",
    "zone": "Zulia"
  },
  {
    "country": "DEU",
    "id": 151,
    "latitude": 53.55197049556244,
    "longitude": 9.998053285520314,
    "name": "Hamburg",
    "pop_avg": 1748058.5,
    "pop_max": 1757000,
    "pop_min": 1739117,
    "rank": 3,
    "wiki": "Q1055",
    "zone": "Hamburg"
  },
  {
    "country": "ISR",
    "id": 152,
    "latitude": 32.08193733304165,
    "longitude": 34.76806589955174,
    "name": "Tel Aviv-Yafo",
    "pop_avg": 1745179.0,
    "pop_max": 3112000,
    "pop_min": 378358,
    "rank": 3,
    "wiki": "Q33935",
    "zone": "Tel Aviv"
  },
  {
    "country": "POL",
    "id": 153,
    "latitude": 52.25194648839556,
    "longitude": 20.998053692465305,
    "name": "Warsaw",
    "pop_avg": 1704569.5,
    "pop_max": 1707000,
    "pop_min": 1702139,
    "rank": 3,
    "wiki": "Q270",
    "zone": "Masovian"
  },
  {
    "country": "HUN",
    "id": 154,
    "latitude": 47.50195218499135,
    "longitude": 19.081374818759684,
    "name": "Budapest",
    "pop_avg": 1679000.0,
    "pop_max": 1679000,
    "pop_min": 1679000,
    "rank": 3,
    "wiki": "Q1781",
    "zone": "Budapest"
  },
  {
    "country": "PRT",
    "id": 155,
    "latitude": 38.72466873648784,
    "longitude": -9.14681216410213,
    "name": "Lisbon",
    "pop_avg": 1664901.0,
    "pop_max": 2812000,
    "pop_min": 517802,
    "rank": 3,
    "wiki": "Q597",
    "zone": "Lisboa"
  },
  {
    "country": "ITA",
    "id": 156,
    "latitude": 40.841971105863195,
    "longitude": 14.243065492568519,
    "name": "Naples",
    "pop_avg": 1619486.0,
    "pop_max": 2250000,
    "pop_min": 988972,
    "rank": 3,
    "wiki": "Q2634",
    "zone": "Campania"
  },
  {
    "country": "BRA",
    "id": 157,
    "latitude": -16.718081384601533,
    "longitude": -49.301970518427936,
    "name": "Goi\u00e2nia",
    "pop_avg": 1596597.5,
    "pop_max": 2022000,
    "pop_min": 1171195,
    "rank": 3,
    "wiki": "Q83189",
    "zone": "Goi\u00e1s"
  },
  {
    "country": "JPN",
    "id": 158,
    "latitude": 34.3897809609806,
    "longitude": 132.44096710436975,
    "name": "Hiroshima",
    "pop_avg": 1594420.5,
    "pop_max": 2045000,
    "pop_min": 1143841,
    "rank": 3,
    "wiki": "Q34664",
    "zone": "Hiroshima"
  },
  {
    "country": "USA",
    "id": 159,
    "latitude": 44.98192512606187,
    "longitude": -93.25373219666352,
    "name": "Minneapolis",
    "pop_avg": 1491886.5,
    "pop_max": 2616000,
    "pop_min": 367773,
    "rank": 3,
    "wiki": "Q36091",
    "zone": "Minnesota"
  },
  {
    "country": "CHN",
    "id": 160,
    "latitude": 22.821934077796072,
    "longitude": 108.31809845192925,
    "name": "Nanning",
    "pop_avg": 1485394.0,
    "pop_max": 2167000,
    "pop_min": 803788,
    "rank": 3,
    "wiki": "Q179608",
    "zone": "Guangxi"
  },
  {
    "country": "MYS",
    "id": 161,
    "latitude": 3.168611730712371,
    "longitude": 101.69803741674644,
    "name": "Kuala Lumpur",
    "pop_avg": 1448000.0,
    "pop_max": 1448000,
    "pop_min": 1448000,
    "rank": 3,
    "wiki": "Q1865",
    "zone": "Selangor"
  },
  {
    "country": "BEL",
    "id": 162,
    "latitude": 50.83526293533032,
    "longitude": 4.33137074969045,
    "name": "Brussels",
    "pop_avg": 1381011.0,
    "pop_max": 1743000,
    "pop_min": 1019022,
    "rank": 3,
    "wiki": "Q239",
    "zone": "Brussels"
  },
  {
    "country": "SAU",
    "id": 163,
    "latitude": 21.43196724022539,
    "longitude": 39.818093568842755,
    "name": "Makkah",
    "pop_avg": 1354312.0,
    "pop_max": 1385000,
    "pop_min": 1323624,
    "rank": 3,
    "wiki": "Q5806",
    "zone": "Makkah"
  },
  {
    "country": "USA",
    "id": 164,
    "latitude": 27.94893379298594,
    "longitude": -82.46056670996677,
    "name": "Tampa",
    "pop_avg": 1319232.5,
    "pop_max": 2314000,
    "pop_min": 324465,
    "rank": 3,
    "wiki": "Q49255",
    "zone": "Florida"
  },
  {
    "country": "DEU",
    "id": 165,
    "latitude": 48.131887894629244,
    "longitude": 11.573047588912061,
    "name": "Munich",
    "pop_avg": 1267695.5,
    "pop_max": 1275000,
    "pop_min": 1260391,
    "rank": 3,
    "wiki": "Q1726",
    "zone": "Bayern"
  },
  {
    "country": "USA",
    "id": 166,
    "latitude": 38.636963578185146,
    "longitude": -90.2419263698286,
    "name": "St. Louis",
    "pop_avg": 1259958.0,
    "pop_max": 2199000,
    "pop_min": 320916,
    "rank": 3,
    "wiki": "Q38022",
    "zone": "Missouri"
  },
  {
    "country": "CHN",
    "id": 167,
    "latitude": 40.654153112698395,
    "longitude": 109.82007395649259,
    "name": "Baotou",
    "pop_avg": 1229664.5,
    "pop_max": 2036000,
    "pop_min": 423329,
    "rank": 3,
    "wiki": "Q569907",
    "zone": "Nei Mongol"
  },
  {
    "country": "LBY",
    "id": 168,
    "latitude": 32.89250001935369,
    "longitude": 13.180011758078194,
    "name": "Tripoli",
    "pop_avg": 1209199.0,
    "pop_max": 2189000,
    "pop_min": 229398,
    "rank": 3,
    "wiki": "Q3579",
    "zone": "Tajura' wa an Nawahi al Arba"
  },
  {
    "country": "AUS",
    "id": 169,
    "latitude": -31.95306877073017,
    "longitude": 115.83805287904272,
    "name": "Perth",
    "pop_avg": 1206108.0,
    "pop_max": 1532000,
    "pop_min": 880216,
    "rank": 3,
    "wiki": "Q3183",
    "zone": "Western Australia"
  },
  {
    "country": "DNK",
    "id": 170,
    "latitude": 55.68051004902594,
    "longitude": 12.561539888703294,
    "name": "K\u00f8benhavn",
    "pop_avg": 1085000.0,
    "pop_max": 1085000,
    "pop_min": 1085000,
    "rank": 3,
    "wiki": "Q1748",
    "zone": "Hovedstaden"
  },
  {
    "country": "DOM",
    "id": 171,
    "latitude": 18.472018713195382,
    "longitude": -69.90203094331503,
    "name": "Santo Domingo",
    "pop_avg": 1078436.5,
    "pop_max": 2154000,
    "pop_min": 2873,
    "rank": 3,
    "wiki": "Q34820",
    "zone": "Distrito Nacional"
  },
  {
    "country": "KWT",
    "id": 172,
    "latitude": 29.371663488629565,
    "longitude": 47.97635528762527,
    "name": "Kuwait",
    "pop_avg": 1061532.0,
    "pop_max": 2063000,
    "pop_min": 60064,
    "rank": 3,
    "wiki": "Q35178",
    "zone": "Al Kuwayt"
  },
  {
    "country": "IRL",
    "id": 173,
    "latitude": 53.335006994584944,
    "longitude": -6.250851540391068,
    "name": "Dublin",
    "pop_avg": 1013988.0,
    "pop_max": 1059000,
    "pop_min": 968976,
    "rank": 3,
    "wiki": "Q1761",
    "zone": "Dublin"
  },
  {
    "country": "LBR",
    "id": 174,
    "latitude": 6.314581647160139,
    "longitude": -10.799660436775923,
    "name": "Monrovia",
    "pop_avg": 913331.0,
    "pop_max": 1041000,
    "pop_min": 785662,
    "rank": 3,
    "wiki": "Q3748",
    "zone": "Montserrado"
  },
  {
    "country": "CAN",
    "id": 175,
    "latitude": 53.55197049556244,
    "longitude": -113.50192779407519,
    "name": "Edmonton",
    "pop_avg": 885195.5,
    "pop_max": 1058000,
    "pop_min": 712391,
    "rank": 3,
    "wiki": "Q2096",
    "zone": "Alberta"
  },
  {
    "country": "FIN",
    "id": 176,
    "latitude": 60.17750923256807,
    "longitude": 24.93218048284558,
    "name": "Helsinki",
    "pop_avg": 836728.5,
    "pop_max": 1115000,
    "pop_min": 558457,
    "rank": 3,
    "wiki": "Q1757",
    "zone": "Southern Finland"
  },
  {
    "country": "CHE",
    "id": 177,
    "latitude": 47.381933670993476,
    "longitude": 8.548064271842577,
    "name": "Z\u00fcrich",
    "pop_avg": 724865.0,
    "pop_max": 1108000,
    "pop_min": 341730,
    "rank": 3,
    "wiki": "Q72",
    "zone": "Z\u00fcrich"
  },
  {
    "country": "NOR",
    "id": 178,
    "latitude": 59.91863614500187,
    "longitude": 10.748033347372314,
    "name": "Oslo",
    "pop_avg": 707500.0,
    "pop_max": 835000,
    "pop_min": 580000,
    "rank": 3,
    "wiki": "Q585",
    "zone": "Oslo"
  },
  {
    "country": "CAN",
    "id": 179,
    "latitude": 49.88298748686964,
    "longitude": -97.1659918637825,
    "name": "Winnipeg",
    "pop_avg": 603688.0,
    "pop_max": 632063,
    "pop_min": 575313,
    "rank": 3,
    "wiki": "Q2135",
    "zone": "Manitoba"
  },
  {
    "country": "CZE",
    "id": 180,
    "latitude": 50.08528287347832,
    "longitude": 14.464033917048539,
    "name": "Prague",
    "pop_avg": 582043.5,
    "pop_max": 1162000,
    "pop_min": 2087,
    "rank": 3,
    "wiki": "Q1085",
    "zone": "Prague"
  },
  {
    "country": "USA",
    "id": 181,
    "latitude": 21.308822302073963,
    "longitude": -157.8599437447736,
    "name": "Honolulu",
    "pop_avg": 578828.5,
    "pop_max": 786000,
    "pop_min": 371657,
    "rank": 3,
    "wiki": "Q18094",
    "zone": "Hawaii"
  },
  {
    "country": "USA",
    "id": 182,
    "latitude": 29.99694831936148,
    "longitude": -90.04191273864285,
    "name": "New Orleans",
    "pop_avg": 527428.5,
    "pop_max": 785000,
    "pop_min": 269857,
    "rank": 3,
    "wiki": "Q34404",
    "zone": "Louisiana"
  },
  {
    "country": "USA",
    "id": 183,
    "latitude": 61.219969908790006,
    "longitude": -149.90021488645436,
    "name": "Anchorage",
    "pop_avg": 252068.0,
    "pop_max": 260283,
    "pop_min": 243853,
    "rank": 3,
    "wiki": "Q39450",
    "zone": "Alaska"
  },
  {
    "country": "CHN",
    "id": 184,
    "latitude": 22.554316369677963,
    "longitude": 114.1201772298325,
    "name": "Shenzhen",
    "pop_avg": 4291796.0,
    "pop_max": 7581000,
    "pop_min": 1002592,
    "rank": 4,
    "wiki": "Q15174",
    "zone": "Guangdong"
  },
  {
    "country": "CHN",
    "id": 185,
    "latitude": 22.6333071075,
    "longitude": 120.266601928,
    "name": "Kaohsiung",
    "pop_avg": 2144391.5,
    "pop_max": 2769072,
    "pop_min": 1519711,
    "rank": 4,
    "wiki": "Q181557",
    "zone": "Kaohsiung City"
  },
  {
    "country": "AZE",
    "id": 186,
    "latitude": 40.39721789134302,
    "longitude": 49.860271303257775,
    "name": "Baku",
    "pop_avg": 2007150.0,
    "pop_max": 2122300,
    "pop_min": 1892000,
    "rank": 4,
    "wiki": "Q9248",
    "zone": "Baki"
  },
  {
    "country": "BOL",
    "id": 187,
    "latitude": -17.751971765465044,
    "longitude": -63.227942198171036,
    "name": "Santa Cruz",
    "pop_avg": 1859530.5,
    "pop_max": 2102998,
    "pop_min": 1616063,
    "rank": 4,
    "wiki": "Q170688",
    "zone": "Santa Cruz"
  },
  {
    "country": "LBN",
    "id": 188,
    "latitude": 33.8739209756269,
    "longitude": 35.507762351377664,
    "name": "Beirut",
    "pop_avg": 1779062.5,
    "pop_max": 1846000,
    "pop_min": 1712125,
    "rank": 4,
    "wiki": "Q3820",
    "zone": "Beirut"
  },
  {
    "country": "BLR",
    "id": 189,
    "latitude": 53.901923295043105,
    "longitude": 27.56468129665825,
    "name": "Minsk",
    "pop_avg": 1691069.0,
    "pop_max": 1805000,
    "pop_min": 1577138,
    "rank": 4,
    "wiki": "Q2280",
    "zone": "Minsk"
  },
  {
    "country": "MAR",
    "id": 190,
    "latitude": 34.02530731107282,
    "longitude": -6.83640815612614,
    "name": "Rabat",
    "pop_avg": 1680376.5,
    "pop_max": 1705000,
    "pop_min": 1655753,
    "rank": 4,
    "wiki": "Q3551",
    "zone": "Rabat - Sal\u00e9 - Zemmour - Zaer"
  },
  {
    "country": "IND",
    "id": 191,
    "latitude": 23.251933670896733,
    "longitude": 77.40804718227434,
    "name": "Bhopal",
    "pop_avg": 1663457.0,
    "pop_max": 1727000,
    "pop_min": 1599914,
    "rank": 4,
    "wiki": "Q80989",
    "zone": "Madhya Pradesh"
  },
  {
    "country": "BRA",
    "id": 192,
    "latitude": -3.098085860458582,
    "longitude": -60.001963397702525,
    "name": "Manaus",
    "pop_avg": 1636622.0,
    "pop_max": 1753000,
    "pop_min": 1520244,
    "rank": 4,
    "wiki": "Q40236",
    "zone": "Amazonas"
  },
  {
    "country": "HTI",
    "id": 193,
    "latitude": 18.54297045473237,
    "longitude": -72.33798044690553,
    "name": "Port-au-Prince",
    "pop_avg": 1616371.0,
    "pop_max": 1998000,
    "pop_min": 1234742,
    "rank": 4,
    "wiki": "Q34261",
    "zone": "Ouest"
  },
  {
    "country": "IDN",
    "id": 194,
    "latitude": -2.9780931846768226,
    "longitude": 104.74808380347753,
    "name": "Palembang",
    "pop_avg": 1595250.0,
    "pop_max": 1749000,
    "pop_min": 1441500,
    "rank": 4,
    "wiki": "Q8131",
    "zone": "Sumatera Selatan"
  },
  {
    "country": "IRN",
    "id": 195,
    "latitude": 32.701951167679454,
    "longitude": 51.69809194128618,
    "name": "Isfahan",
    "pop_avg": 1572883.0,
    "pop_max": 1628000,
    "pop_min": 1517766,
    "rank": 4,
    "wiki": "Q42053",
    "zone": "Esfahan"
  },
  {
    "country": "TUN",
    "id": 196,
    "latitude": 36.80277813623144,
    "longitude": 10.179678099212026,
    "name": "Tunis",
    "pop_avg": 1570476.5,
    "pop_max": 2412500,
    "pop_min": 728453,
    "rank": 4,
    "wiki": "Q3572",
    "zone": "Tunis"
  },
  {
    "country": "VEN",
    "id": 197,
    "latitude": 10.231927363878526,
    "longitude": -67.98196726329434,
    "name": "Valencia",
    "pop_avg": 1569526.5,
    "pop_max": 1770000,
    "pop_min": 1369053,
    "rank": 4,
    "wiki": "Q54880",
    "zone": "Carabobo"
  },
  {
    "country": "ZWE",
    "id": 198,
    "latitude": -17.815843835777798,
    "longitude": 31.042763572062825,
    "name": "Harare",
    "pop_avg": 1557406.5,
    "pop_max": 1572000,
    "pop_min": 1542813,
    "rank": 4,
    "wiki": "Q3921",
    "zone": "Harare"
  },
  {
    "country": "ECU",
    "id": 199,
    "latitude": -0.2130423220355624,
    "longitude": -78.5019969671124,
    "name": "Quito",
    "pop_avg": 1550407.0,
    "pop_max": 1701000,
    "pop_min": 1399814,
    "rank": 4,
    "wiki": "Q2900",
    "zone": "Pichincha"
  },
  {
    "country": "MDG",
    "id": 200,
    "latitude": -18.914691492032148,
    "longitude": 47.51467804152986,
    "name": "Antananarivo",
    "pop_avg": 1544216.5,
    "pop_max": 1697000,
    "pop_min": 1391433,
    "rank": 4,
    "wiki": "Q3915",
    "zone": "Antananarivo"
  },
  {
    "country": "USA",
    "id": 201,
    "latitude": 40.43194445384313,
    "longitude": -80.00193125260023,
    "name": "Pittsburgh",
    "pop_avg": 1535267.5,
    "pop_max": 1838000,
    "pop_min": 1232535,
    "rank": 4,
    "wiki": "Q1342",
    "zone": "Pennsylvania"
  },
  {
    "country": "GIN",
    "id": 202,
    "latitude": 9.53346870502179,
    "longitude": -13.682180886123945,
    "name": "Conakry",
    "pop_avg": 1494000.0,
    "pop_max": 1494000,
    "pop_min": 1494000,
    "rank": 4,
    "wiki": "Q3733",
    "zone": "Conakry"
  },
  {
    "country": "PAK",
    "id": 203,
    "latitude": 30.20192288804725,
    "longitude": 71.45306183068806,
    "name": "Multan",
    "pop_avg": 1479615.0,
    "pop_max": 1522000,
    "pop_min": 1437230,
    "rank": 4,
    "wiki": "Q185453",
    "zone": "Punjab"
  },
  {
    "country": "CHN",
    "id": 204,
    "latitude": 23.37195218489478,
    "longitude": 116.66807973451489,
    "name": "Shantou",
    "pop_avg": 1467486.5,
    "pop_max": 1601000,
    "pop_min": 1333973,
    "rank": 4,
    "wiki": "Q59100",
    "zone": "Guangdong"
  },
  {
    "country": "KHM",
    "id": 205,
    "latitude": 11.55197598855841,
    "longitude": 104.91468862118643,
    "name": "Phnom Penh",
    "pop_avg": 1466000.0,
    "pop_max": 1466000,
    "pop_min": 1466000,
    "rank": 4,
    "wiki": "Q1850",
    "zone": "Phnom Penh"
  },
  {
    "country": "MEX",
    "id": 206,
    "latitude": 32.50196337470993,
    "longitude": -117.08194183217557,
    "name": "Tijuana",
    "pop_avg": 1464728.5,
    "pop_max": 1553000,
    "pop_min": 1376457,
    "rank": 4,
    "wiki": "Q124739",
    "zone": "Baja California"
  },
  {
    "country": "USA",
    "id": 207,
    "latitude": 18.440023009204765,
    "longitude": -66.12997929041614,
    "name": "San Juan",
    "pop_avg": 1437115.5,
    "pop_max": 2478905,
    "pop_min": 395326,
    "rank": 4,
    "wiki": "Q41211",
    "zone": ""
  },
  {
    "country": "PAK",
    "id": 208,
    "latitude": 25.381932857103266,
    "longitude": 68.37304311322782,
    "name": "Hyderabad",
    "pop_avg": 1422665.0,
    "pop_max": 1459000,
    "pop_min": 1386330,
    "rank": 4,
    "wiki": "Q1640079",
    "zone": "Sind"
  },
  {
    "country": "MLI",
    "id": 209,
    "latitude": 12.65196052632325,
    "longitude": -8.001984963249697,
    "name": "Bamako",
    "pop_avg": 1395640.5,
    "pop_max": 1494000,
    "pop_min": 1297281,
    "rank": 4,
    "wiki": "Q3703",
    "zone": "Bamako"
  },
  {
    "country": "AUS",
    "id": 210,
    "latitude": -27.453085046753756,
    "longitude": 153.03314687333204,
    "name": "Brisbane",
    "pop_avg": 1393176.5,
    "pop_max": 1860000,
    "pop_min": 926353,
    "rank": 4,
    "wiki": "Q34932",
    "zone": "Queensland"
  },
  {
    "country": "UGA",
    "id": 211,
    "latitude": 0.318604813383331,
    "longitude": 32.581377667121046,
    "name": "Kampala",
    "pop_avg": 1386594.5,
    "pop_max": 1420000,
    "pop_min": 1353189,
    "rank": 4,
    "wiki": "Q3894",
    "zone": "Kampala"
  },
  {
    "country": "ARG",
    "id": 212,
    "latitude": -31.398012211483092,
    "longitude": -64.18424041594841,
    "name": "C\u00f3rdoba",
    "pop_avg": 1374467.5,
    "pop_max": 1452000,
    "pop_min": 1296935,
    "rank": 4,
    "wiki": "Q44210",
    "zone": "C\u00f3rdoba"
  },
  {
    "country": "USA",
    "id": 213,
    "latitude": 29.48927904852593,
    "longitude": -98.50925119896328,
    "name": "San Antonio",
    "pop_avg": 1364905.0,
    "pop_max": 1473000,
    "pop_min": 1256810,
    "rank": 4,
    "wiki": "Q975",
    "zone": "Texas"
  },
  {
    "country": "IDN",
    "id": 214,
    "latitude": -6.964671553833284,
    "longitude": 110.4180736309741,
    "name": "Semarang",
    "pop_avg": 1342042.0,
    "pop_max": 1396000,
    "pop_min": 1288084,
    "rank": 4,
    "wiki": "Q11025",
    "zone": "Jawa Tengah"
  },
  {
    "country": "ZAF",
    "id": 215,
    "latitude": -25.704974695184433,
    "longitude": 28.22748321723384,
    "name": "Pretoria",
    "pop_avg": 1338000.0,
    "pop_max": 1338000,
    "pop_min": 1338000,
    "rank": 4,
    "wiki": "Q3926",
    "zone": "Gauteng"
  },
  {
    "country": "CMR",
    "id": 216,
    "latitude": 3.868646520754112,
    "longitude": 11.514704896854425,
    "name": "Yaounde",
    "pop_avg": 1335793.5,
    "pop_max": 1611000,
    "pop_min": 1060587,
    "rank": 4,
    "wiki": "Q3808",
    "zone": "Centre"
  },
  {
    "country": "IND",
    "id": 217,
    "latitude": 23.685279158613014,
    "longitude": 86.98138744138708,
    "name": "Asansol",
    "pop_avg": 1328000.0,
    "pop_max": 1328000,
    "pop_min": 1328000,
    "rank": 4,
    "wiki": "Q202139",
    "zone": "West Bengal"
  },
  {
    "country": "IND",
    "id": 218,
    "latitude": 11.001906205027637,
    "longitude": 76.94807525844436,
    "name": "Coimbatore",
    "pop_avg": 1327911.5,
    "pop_max": 1696000,
    "pop_min": 959823,
    "rank": 4,
    "wiki": "Q9885",
    "zone": "Tamil Nadu"
  },
  {
    "country": "MOZ",
    "id": 219,
    "latitude": -25.953331628778983,
    "longitude": 32.58721710397009,
    "name": "Maputo",
    "pop_avg": 1318806.5,
    "pop_max": 1446000,
    "pop_min": 1191613,
    "rank": 4,
    "wiki": "Q3889",
    "zone": "Maputo"
  },
  {
    "country": "PHL",
    "id": 220,
    "latitude": 7.111962764256759,
    "longitude": 125.6280496238735,
    "name": "Davao",
    "pop_avg": 1307252.0,
    "pop_max": 1402000,
    "pop_min": 1212504,
    "rank": 4,
    "wiki": "Q1473",
    "zone": "Davao Del Sur"
  },
  {
    "country": "ZMB",
    "id": 221,
    "latitude": -15.414698409335926,
    "longitude": 28.28138173611427,
    "name": "Lusaka",
    "pop_avg": 1297720.0,
    "pop_max": 1328000,
    "pop_min": 1267440,
    "rank": 4,
    "wiki": "Q3881",
    "zone": "Lusaka"
  },
  {
    "country": "IND",
    "id": 222,
    "latitude": 17.731960526343414,
    "longitude": 83.30303619596981,
    "name": "Vishakhapatnam",
    "pop_avg": 1296089.0,
    "pop_max": 1529000,
    "pop_min": 1063178,
    "rank": 4,
    "wiki": "Q200016",
    "zone": "Andhra Pradesh"
  },
  {
    "country": "USA",
    "id": 223,
    "latitude": 37.30192878814046,
    "longitude": -121.851934914877,
    "name": "San Jose",
    "pop_avg": 1281471.5,
    "pop_max": 1668000,
    "pop_min": 894943,
    "rank": 4,
    "wiki": "Q16553",
    "zone": "California"
  },
  {
    "country": "RUS",
    "id": 224,
    "latitude": 56.851975785289085,
    "longitude": 60.59801381632178,
    "name": "Yekaterinburg",
    "pop_avg": 1270488.0,
    "pop_max": 1313000,
    "pop_min": 1227976,
    "rank": 4,
    "wiki": "Q887",
    "zone": "Sverdlovsk"
  },
  {
    "country": "IDN",
    "id": 225,
    "latitude": -5.138013025180214,
    "longitude": 119.43008168765073,
    "name": "Ujungpandang",
    "pop_avg": 1262000.0,
    "pop_max": 1262000,
    "pop_min": 1262000,
    "rank": 4,
    "wiki": "Q14634",
    "zone": "Sulawesi Selatan"
  },
  {
    "country": "CHN",
    "id": 226,
    "latitude": 47.34692288811567,
    "longitude": 123.9880463686585,
    "name": "Qiqihar",
    "pop_avg": 1261682.0,
    "pop_max": 1641000,
    "pop_min": 882364,
    "rank": 4,
    "wiki": "Q205922",
    "zone": "Heilongjiang"
  },
  {
    "country": "PAK",
    "id": 227,
    "latitude": 34.00696195056224,
    "longitude": 71.53305694787582,
    "name": "Peshawar",
    "pop_avg": 1260886.5,
    "pop_max": 1303000,
    "pop_min": 1218773,
    "rank": 4,
    "wiki": "Q1113311",
    "zone": "N.W.F.P."
  },
  {
    "country": "IND",
    "id": 228,
    "latitude": 25.331935908860828,
    "longitude": 82.99809356901545,
    "name": "Varanasi",
    "pop_avg": 1258202.0,
    "pop_max": 1352000,
    "pop_min": 1164404,
    "rank": 4,
    "wiki": "Q79980",
    "zone": "Uttar Pradesh"
  },
  {
    "country": "RUS",
    "id": 229,
    "latitude": 56.334953080209004,
    "longitude": 43.99814850050001,
    "name": "Nizhny Novgorod",
    "pop_avg": 1246463.0,
    "pop_max": 1278000,
    "pop_min": 1214926,
    "rank": 4,
    "wiki": "Q891",
    "zone": "Nizhegorod"
  },
  {
    "country": "IRN",
    "id": 230,
    "latitude": 29.6319060016516,
    "longitude": 52.56806467891988,
    "name": "Shiraz",
    "pop_avg": 1240000.0,
    "pop_max": 1240000,
    "pop_min": 1240000,
    "rank": 4,
    "wiki": "Q6397066",
    "zone": "Fars"
  },
  {
    "country": "CHN",
    "id": 231,
    "latitude": 32.631929601924014,
    "longitude": 116.97803497540144,
    "name": "Huainan",
    "pop_avg": 1239327.5,
    "pop_max": 1451000,
    "pop_min": 1027655,
    "rank": 4,
    "wiki": "Q360178",
    "zone": "Anhui"
  },
  {
    "country": "RUS",
    "id": 232,
    "latitude": 55.03190600175333,
    "longitude": 82.95809601042157,
    "name": "Novosibirsk",
    "pop_avg": 1213100.5,
    "pop_max": 1389000,
    "pop_min": 1037201,
    "rank": 4,
    "wiki": "Q883",
    "zone": "Novosibirsk"
  },
  {
    "country": "USA",
    "id": 233,
    "latitude": 45.521969681728024,
    "longitude": -122.68193593213289,
    "name": "Portland",
    "pop_avg": 1207756.5,
    "pop_max": 1875000,
    "pop_min": 540513,
    "rank": 4,
    "wiki": "Q6106",
    "zone": "Oregon"
  },
  {
    "country": "BOL",
    "id": 234,
    "latitude": -16.49602775504337,
    "longitude": -68.15193104910219,
    "name": "La Paz",
    "pop_avg": 1201399.5,
    "pop_max": 1590000,
    "pop_min": 812799,
    "rank": 4,
    "wiki": "Q1491",
    "zone": "La Paz"
  },
  {
    "country": "USA",
    "id": 235,
    "latitude": 41.47193265371732,
    "longitude": -81.69694406998963,
    "name": "Cleveland",
    "pop_avg": 1169757.0,
    "pop_max": 1890000,
    "pop_min": 449514,
    "rank": 4,
    "wiki": "Q37320",
    "zone": "Ohio"
  },
  {
    "country": "USA",
    "id": 236,
    "latitude": 36.21194364002429,
    "longitude": -115.22195200469417,
    "name": "Las Vegas",
    "pop_avg": 1150717.0,
    "pop_max": 1823000,
    "pop_min": 478434,
    "rank": 4,
    "wiki": "Q23768",
    "zone": "Nevada"
  },
  {
    "country": "COD",
    "id": 237,
    "latitude": -11.678078943175194,
    "longitude": 27.478071596137113,
    "name": "Lubumbashi",
    "pop_avg": 1114317.0,
    "pop_max": 1352000,
    "pop_min": 876634,
    "rank": 4,
    "wiki": "Q187593",
    "zone": "Katanga"
  },
  {
    "country": "IND",
    "id": 238,
    "latitude": 9.921972122992088,
    "longitude": 78.11808136196464,
    "name": "Madurai",
    "pop_avg": 1101954.0,
    "pop_max": 1294000,
    "pop_min": 909908,
    "rank": 4,
    "wiki": "Q228405",
    "zone": "Tamil Nadu"
  },
  {
    "country": "TGO",
    "id": 239,
    "latitude": 6.133882930268385,
    "longitude": 1.22081126074562,
    "name": "Lom\u00e9",
    "pop_avg": 1100850.0,
    "pop_max": 1452000,
    "pop_min": 749700,
    "rank": 4,
    "wiki": "Q3792",
    "zone": "Maritime"
  },
  {
    "country": "SRB",
    "id": 240,
    "latitude": 44.82059130444674,
    "longitude": 20.466044822020535,
    "name": "Belgrade",
    "pop_avg": 1099000.0,
    "pop_max": 1099000,
    "pop_min": 1099000,
    "rank": 4,
    "wiki": "Q3711",
    "zone": "Grad Beograd"
  },
  {
    "country": "ARM",
    "id": 241,
    "latitude": 40.18309659414189,
    "longitude": 44.51160553175208,
    "name": "Yerevan",
    "pop_avg": 1097742.5,
    "pop_max": 1102000,
    "pop_min": 1093485,
    "rank": 4,
    "wiki": "Q1953",
    "zone": "Erevan"
  },
  {
    "country": "IND",
    "id": 242,
    "latitude": 21.218612558613017,
    "longitude": 81.43138744138724,
    "name": "Bhilai",
    "pop_avg": 1097000.0,
    "pop_max": 1097000,
    "pop_min": 1097000,
    "rank": 4,
    "wiki": "Q242144",
    "zone": "Chhattisgarh"
  },
  {
    "country": "KAZ",
    "id": 243,
    "latitude": 43.326935705482356,
    "longitude": 76.91309031378273,
    "name": "Almaty",
    "pop_avg": 1096256.0,
    "pop_max": 1209000,
    "pop_min": 983512,
    "rank": 4,
    "wiki": "Q35493",
    "zone": "Almaty"
  },
  {
    "country": "JOR",
    "id": 244,
    "latitude": 31.951971105827454,
    "longitude": 35.93135406687412,
    "name": "Amman",
    "pop_avg": 1060000.0,
    "pop_max": 1060000,
    "pop_min": 1060000,
    "rank": 4,
    "wiki": "Q3805",
    "zone": "Amman"
  },
  {
    "country": "GEO",
    "id": 245,
    "latitude": 41.72695584707759,
    "longitude": 44.788849590997984,
    "name": "Tbilisi",
    "pop_avg": 1052628.5,
    "pop_max": 1100000,
    "pop_min": 1005257,
    "rank": 4,
    "wiki": "Q994",
    "zone": "Tbilisi"
  },
  {
    "country": "USA",
    "id": 246,
    "latitude": 38.57696724029415,
    "longitude": -121.47198394645096,
    "name": "Sacramento",
    "pop_avg": 1035949.0,
    "pop_max": 1604000,
    "pop_min": 467898,
    "rank": 4,
    "wiki": "Q18013",
    "zone": "California"
  },
  {
    "country": "BGR",
    "id": 247,
    "latitude": 42.68529528393054,
    "longitude": 23.314708152110086,
    "name": "Sofia",
    "pop_avg": 1029913.5,
    "pop_max": 1185000,
    "pop_min": 874827,
    "rank": 4,
    "wiki": "Q472",
    "zone": "Grad Sofiya"
  },
  {
    "country": "RUS",
    "id": 248,
    "latitude": 55.75188789465966,
    "longitude": 49.12439890742161,
    "name": "Kazan",
    "pop_avg": 1013635.0,
    "pop_max": 1115000,
    "pop_min": 912270,
    "rank": 4,
    "wiki": "Q900",
    "zone": "Tatarstan"
  },
  {
    "country": "CAN",
    "id": 249,
    "latitude": 51.084937617948356,
    "longitude": -114.08194407011933,
    "name": "Calgary",
    "pop_avg": 1012661.0,
    "pop_max": 1110000,
    "pop_min": 915322,
    "rank": 4,
    "wiki": "Q36312",
    "zone": "Alberta"
  },
  {
    "country": "GTM",
    "id": 250,
    "latitude": 14.623080521448173,
    "longitude": -90.52891143656154,
    "name": "Guatemala",
    "pop_avg": 1009469.0,
    "pop_max": 1024000,
    "pop_min": 994938,
    "rank": 4,
    "wiki": "Q1555",
    "zone": "Guatemala"
  },
  {
    "country": "RUS",
    "id": 251,
    "latitude": 53.196953405717295,
    "longitude": 50.14934926549864,
    "name": "Samara",
    "pop_avg": 996595.0,
    "pop_max": 1137000,
    "pop_min": 856190,
    "rank": 4,
    "wiki": "Q894",
    "zone": "Samara"
  },
  {
    "country": "BFA",
    "id": 252,
    "latitude": 12.372261836543373,
    "longitude": -1.5266696149164432,
    "name": "Ouagadougou",
    "pop_avg": 992228.5,
    "pop_max": 1149000,
    "pop_min": 835457,
    "rank": 4,
    "wiki": "Q3777",
    "zone": "Kadiogo"
  },
  {
    "country": "AUS",
    "id": 253,
    "latitude": -34.93304191527346,
    "longitude": 138.59805898264926,
    "name": "Adelaide",
    "pop_avg": 990677.0,
    "pop_max": 1145000,
    "pop_min": 836354,
    "rank": 4,
    "wiki": "Q5112",
    "zone": "South Australia"
  },
  {
    "country": "SOM",
    "id": 254,
    "latitude": 2.068627192947531,
    "longitude": 45.36473175245874,
    "name": "Mogadishu",
    "pop_avg": 987694.0,
    "pop_max": 1100000,
    "pop_min": 875388,
    "rank": 4,
    "wiki": "Q2449",
    "zone": "Banaadir"
  },
  {
    "country": "AGO",
    "id": 255,
    "latitude": -12.748039473778306,
    "longitude": 15.758063458069444,
    "name": "Huambo",
    "pop_avg": 986000.0,
    "pop_max": 1100000,
    "pop_min": 872000,
    "rank": 4,
    "wiki": "Q207322",
    "zone": "Huambo"
  },
  {
    "country": "USA",
    "id": 256,
    "latitude": 43.05460090730418,
    "longitude": -87.92191294208499,
    "name": "Milwaukee",
    "pop_avg": 983590.0,
    "pop_max": 1388000,
    "pop_min": 579180,
    "rank": 4,
    "wiki": "Q37836",
    "zone": "Wisconsin"
  },
  {
    "country": "MAR",
    "id": 257,
    "latitude": 34.0565454873464,
    "longitude": -5.00232309800316,
    "name": "Fez",
    "pop_avg": 983445.5,
    "pop_max": 1002000,
    "pop_min": 964891,
    "rank": 4,
    "wiki": "Q80985",
    "zone": "F\u00e8s - Boulemane"
  },
  {
    "country": "CAN",
    "id": 258,
    "latitude": 45.41864265536043,
    "longitude": -75.70196115980951,
    "name": "Ottawa",
    "pop_avg": 978564.5,
    "pop_max": 1145000,
    "pop_min": 812129,
    "rank": 4,
    "wiki": "Q1930",
    "zone": "Ontario"
  },
  {
    "country": "USA",
    "id": 259,
    "latitude": 39.16383064361685,
    "longitude": -84.45886850847734,
    "name": "Cincinnati",
    "pop_avg": 971191.0,
    "pop_max": 1636000,
    "pop_min": 306382,
    "rank": 4,
    "wiki": "Q43196",
    "zone": "Ohio"
  },
  {
    "country": "RUS",
    "id": 260,
    "latitude": 54.79192065018958,
    "longitude": 56.03808543088684,
    "name": "Ufa",
    "pop_avg": 969378.0,
    "pop_max": 1018000,
    "pop_min": 920756,
    "rank": 4,
    "wiki": "Q911",
    "zone": "Bashkortostan"
  },
  {
    "country": "IND",
    "id": 261,
    "latitude": 22.789481278316885,
    "longitude": 86.19557281707512,
    "name": "Jamshedpur",
    "pop_avg": 958169.0,
    "pop_max": 1300000,
    "pop_min": 616338,
    "rank": 4,
    "wiki": "Q200054",
    "zone": "Jharkhand"
  },
  {
    "country": "ESP",
    "id": 262,
    "latitude": 37.40501527816093,
    "longitude": -5.980007366347422,
    "name": "Seville",
    "pop_avg": 957533.0,
    "pop_max": 1212045,
    "pop_min": 703021,
    "rank": 4,
    "wiki": "Q8717",
    "zone": "Andaluc\u00eda"
  },
  {
    "country": "FRA",
    "id": 263,
    "latitude": 45.7719544229401,
    "longitude": 4.828084616879835,
    "name": "Lyon",
    "pop_avg": 947658.5,
    "pop_max": 1423000,
    "pop_min": 472317,
    "rank": 4,
    "wiki": "Q456",
    "zone": "Rh\u00f4ne-Alpes"
  },
  {
    "country": "PRY",
    "id": 264,
    "latitude": -25.294457117057675,
    "longitude": -57.643451027901335,
    "name": "Asunci\u00f3n",
    "pop_avg": 940846.5,
    "pop_max": 1870000,
    "pop_min": 11693,
    "rank": 4,
    "wiki": "Q2933",
    "zone": "Asunci\u00f3n"
  },
  {
    "country": "RUS",
    "id": 265,
    "latitude": 58.0019055948639,
    "longitude": 56.248046775288685,
    "name": "Perm",
    "pop_avg": 924154.0,
    "pop_max": 997000,
    "pop_min": 851308,
    "rank": 4,
    "wiki": "Q915",
    "zone": "Perm'"
  },
  {
    "country": "NIC",
    "id": 266,
    "latitude": 12.154962438756115,
    "longitude": -86.27043751890119,
    "name": "Managua",
    "pop_avg": 920000.0,
    "pop_max": 920000,
    "pop_min": 920000,
    "rank": 4,
    "wiki": "Q3274",
    "zone": "Managua"
  },
  {
    "country": "ISR",
    "id": 267,
    "latitude": 31.778407815573303,
    "longitude": 35.20662593459866,
    "name": "Jerusalem",
    "pop_avg": 915150.0,
    "pop_max": 1029300,
    "pop_min": 801000,
    "rank": 4,
    "wiki": "Q1218",
    "zone": "Jerusalem"
  },
  {
    "country": "CHN",
    "id": 268,
    "latitude": 36.62194445382801,
    "longitude": 101.76805898250205,
    "name": "Xining",
    "pop_avg": 907765.5,
    "pop_max": 1048000,
    "pop_min": 767531,
    "rank": 4,
    "wiki": "Q69060",
    "zone": "Gansu"
  },
  {
    "country": "HND",
    "id": 269,
    "latitude": 14.103990759076396,
    "longitude": -87.2194751979415,
    "name": "Tegucigalpa",
    "pop_avg": 898424.0,
    "pop_max": 946000,
    "pop_min": 850848,
    "rank": 4,
    "wiki": "Q3238",
    "zone": "Francisco Moraz\u00e1n"
  },
  {
    "country": "NPL",
    "id": 270,
    "latitude": 27.718637772477223,
    "longitude": 85.31469635222788,
    "name": "Kathmandu",
    "pop_avg": 895000.0,
    "pop_max": 895000,
    "pop_min": 895000,
    "rank": 4,
    "wiki": "Q3037",
    "zone": "Bhaktapur"
  },
  {
    "country": "COL",
    "id": 271,
    "latitude": 10.401684443957492,
    "longitude": -75.51633941501717,
    "name": "Cartagena",
    "pop_avg": 887000.0,
    "pop_max": 887000,
    "pop_min": 887000,
    "rank": 4,
    "wiki": "Q657461",
    "zone": "Bol\u00edvar"
  },
  {
    "country": "GBR",
    "id": 272,
    "latitude": 55.87635058183474,
    "longitude": -4.252653094744971,
    "name": "Glasgow",
    "pop_avg": 885134.0,
    "pop_max": 1160000,
    "pop_min": 610268,
    "rank": 4,
    "wiki": "Q4093",
    "zone": "Glasgow"
  },
  {
    "country": "TJK",
    "id": 273,
    "latitude": 38.56003521631658,
    "longitude": 68.77387935270173,
    "name": "Dushanbe",
    "pop_avg": 882822.0,
    "pop_max": 1086244,
    "pop_min": 679400,
    "rank": 4,
    "wiki": "Q9365",
    "zone": "Tadzhikistan Territories"
  },
  {
    "country": "LBY",
    "id": 274,
    "latitude": 32.11867927640111,
    "longitude": 20.06477732527412,
    "name": "Banghazi",
    "pop_avg": 881187.0,
    "pop_max": 1180000,
    "pop_min": 582374,
    "rank": 4,
    "wiki": "Q40816",
    "zone": "Benghazi"
  },
  {
    "country": "NGA",
    "id": 275,
    "latitude": 9.085279007754195,
    "longitude": 7.53138214293233,
    "name": "Abuja",
    "pop_avg": 869067.5,
    "pop_max": 1576000,
    "pop_min": 162135,
    "rank": 4,
    "wiki": "Q3787",
    "zone": "Federal Capital Territory"
  },
  {
    "country": "MAR",
    "id": 276,
    "latitude": 31.63193896064405,
    "longitude": -8.001933286817405,
    "name": "Marrakesh",
    "pop_avg": 855648.0,
    "pop_max": 872000,
    "pop_min": 839296,
    "rank": 4,
    "wiki": "Q101625",
    "zone": "Marrakech - Tensift - Al Haouz"
  },
  {
    "country": "IDN",
    "id": 277,
    "latitude": -0.9580614463874895,
    "longitude": 100.3580675274182,
    "name": "Padang",
    "pop_avg": 847676.0,
    "pop_max": 855000,
    "pop_min": 840352,
    "rank": 4,
    "wiki": "Q7253",
    "zone": "Sumatera Barat"
  },
  {
    "country": "PAN",
    "id": 278,
    "latitude": 8.969963049094872,
    "longitude": -79.53498301041077,
    "name": "Panama City",
    "pop_avg": 844584.0,
    "pop_max": 1281000,
    "pop_min": 408168,
    "rank": 4,
    "wiki": "Q3306",
    "zone": "Panama"
  },
  {
    "country": "MEX",
    "id": 279,
    "latitude": 20.968584671864164,
    "longitude": -89.61857940530791,
    "name": "M\u00e9rida",
    "pop_avg": 841087.5,
    "pop_max": 965000,
    "pop_min": 717175,
    "rank": 4,
    "wiki": "Q165204",
    "zone": "Yucat\u00e1n"
  },
  {
    "country": "KEN",
    "id": 280,
    "latitude": -4.038080163847781,
    "longitude": 39.68797231233191,
    "name": "Mombasa",
    "pop_avg": 840834.0,
    "pop_max": 882000,
    "pop_min": 799668,
    "rank": 4,
    "wiki": "Q225641",
    "zone": "Coast"
  },
  {
    "country": "TCD",
    "id": 281,
    "latitude": 12.115042394810644,
    "longitude": 15.047202455462298,
    "name": "Ndjamena",
    "pop_avg": 835193.5,
    "pop_max": 989000,
    "pop_min": 681387,
    "rank": 4,
    "wiki": "Q3659",
    "zone": "Hadjer-Lamis"
  },
  {
    "country": "ZAF",
    "id": 282,
    "latitude": -33.96808789508731,
    "longitude": 25.598082989358886,
    "name": "Port Elizabeth",
    "pop_avg": 830527.0,
    "pop_max": 1021000,
    "pop_min": 640054,
    "rank": 4,
    "wiki": "Q125434",
    "zone": "Eastern Cape"
  },
  {
    "country": "NER",
    "id": 283,
    "latitude": 13.51865181050647,
    "longitude": 2.114710186530374,
    "name": "Niamey",
    "pop_avg": 828895.5,
    "pop_max": 915000,
    "pop_min": 742791,
    "rank": 4,
    "wiki": "Q3674",
    "zone": "Niamey"
  },
  {
    "country": "ARG",
    "id": 284,
    "latitude": -32.881384200421394,
    "longitude": -68.81855702566736,
    "name": "Mendoza",
    "pop_avg": 827815.0,
    "pop_max": 893000,
    "pop_min": 762630,
    "rank": 4,
    "wiki": "Q44237",
    "zone": "Mendoza"
  },
  {
    "country": "MNG",
    "id": 285,
    "latitude": 47.91861925856074,
    "longitude": 106.91466990374653,
    "name": "Ulaanbaatar",
    "pop_avg": 827306.0,
    "pop_max": 885000,
    "pop_min": 769612,
    "rank": 4,
    "wiki": "Q23430",
    "zone": "Ulaanbaatar"
  },
  {
    "country": "KGZ",
    "id": 286,
    "latitude": 42.875025305090105,
    "longitude": 74.58325836390367,
    "name": "Bishkek",
    "pop_avg": 820606.0,
    "pop_max": 837000,
    "pop_min": 804212,
    "rank": 4,
    "wiki": "Q9361",
    "zone": "Bishkek"
  },
  {
    "country": "CHN",
    "id": 287,
    "latitude": 25.28193896061856,
    "longitude": 110.27808217589546,
    "name": "Guilin",
    "pop_avg": 818176.0,
    "pop_max": 987000,
    "pop_min": 649352,
    "rank": 4,
    "wiki": "Q189633",
    "zone": "Guangxi"
  },
  {
    "country": "AUS",
    "id": 288,
    "latitude": -32.84534788129986,
    "longitude": 151.81501216553397,
    "name": "Newcastle",
    "pop_avg": 816285.5,
    "pop_max": 1134616,
    "pop_min": 497955,
    "rank": 4,
    "wiki": "Q57278",
    "zone": "New South Wales"
  },
  {
    "country": "PHL",
    "id": 289,
    "latitude": 10.321921870714846,
    "longitude": 123.8981293764707,
    "name": "Cebu",
    "pop_avg": 806817.0,
    "pop_max": 815000,
    "pop_min": 798634,
    "rank": 4,
    "wiki": "Q1467",
    "zone": "Cebu"
  },
  {
    "country": "ESP",
    "id": 290,
    "latitude": 39.48696337473774,
    "longitude": -0.4019579042998771,
    "name": "Valencia",
    "pop_avg": 806652.0,
    "pop_max": 808000,
    "pop_min": 805304,
    "rank": 4,
    "wiki": "Q8818",
    "zone": "Comunidad Valenciana"
  },
  {
    "country": "IND",
    "id": 291,
    "latitude": 20.27237393781212,
    "longitude": 85.82541453256835,
    "name": "Bhubaneshwar",
    "pop_avg": 803121.5,
    "pop_max": 844000,
    "pop_min": 762243,
    "rank": 4,
    "wiki": "Q171771",
    "zone": "Orissa"
  },
  {
    "country": "RUS",
    "id": 292,
    "latitude": 48.711955847105685,
    "longitude": 44.498014630059345,
    "name": "Volgograd",
    "pop_avg": 801827.5,
    "pop_max": 984000,
    "pop_min": 619655,
    "rank": 4,
    "wiki": "Q914",
    "zone": "Volgograd"
  },
  {
    "country": "JAM",
    "id": 293,
    "latitude": 17.977076623830897,
    "longitude": -76.7674337136691,
    "name": "Kingston",
    "pop_avg": 801336.5,
    "pop_max": 937700,
    "pop_min": 664973,
    "rank": 4,
    "wiki": "Q34692",
    "zone": "Kingston"
  },
  {
    "country": "USA",
    "id": 294,
    "latitude": 35.818781350745724,
    "longitude": -78.64469344248448,
    "name": "Raleigh",
    "pop_avg": 789991.5,
    "pop_max": 1163515,
    "pop_min": 416468,
    "rank": 4,
    "wiki": "Q41087",
    "zone": "North Carolina"
  },
  {
    "country": "YEM",
    "id": 295,
    "latitude": 12.779722512762874,
    "longitude": 45.00949011107019,
    "name": "Aden",
    "pop_avg": 775301.0,
    "pop_max": 1000000,
    "pop_min": 550602,
    "rank": 4,
    "wiki": "Q131694",
    "zone": "`Adan"
  },
  {
    "country": "ITA",
    "id": 296,
    "latitude": 38.126968867896494,
    "longitude": 13.348081361705624,
    "name": "Palermo",
    "pop_avg": 767587.5,
    "pop_max": 863000,
    "pop_min": 672175,
    "rank": 4,
    "wiki": "Q2656",
    "zone": "Sicily"
  },
  {
    "country": "URY",
    "id": 297,
    "latitude": -34.856095707590725,
    "longitude": -56.17299814703597,
    "name": "Montevideo",
    "pop_avg": 759162.0,
    "pop_max": 1513000,
    "pop_min": 5324,
    "rank": 4,
    "wiki": "Q1335",
    "zone": "Montevideo"
  },
  {
    "country": "USA",
    "id": 298,
    "latitude": 35.12193265369183,
    "longitude": -90.00194101826514,
    "name": "Memphis",
    "pop_avg": 753843.5,
    "pop_max": 1081000,
    "pop_min": 426687,
    "rank": 4,
    "wiki": "Q16563",
    "zone": "Tennessee"
  },
  {
    "country": "MEX",
    "id": 299,
    "latitude": 28.64692736395233,
    "longitude": -106.08692820094666,
    "name": "Chihuahua",
    "pop_avg": 750633.5,
    "pop_max": 793000,
    "pop_min": 708267,
    "rank": 4,
    "wiki": "Q61302",
    "zone": "Chihuahua"
  },
  {
    "country": "CAF",
    "id": 300,
    "latitude": 4.366644306349087,
    "longitude": 18.558288125287277,
    "name": "Bangui",
    "pop_avg": 727348.0,
    "pop_max": 831925,
    "pop_min": 622771,
    "rank": 4,
    "wiki": "Q3832",
    "zone": "Bangui"
  },
  {
    "country": "BEN",
    "id": 301,
    "latitude": 6.401954422782467,
    "longitude": 2.518044740568598,
    "name": "Cotonou",
    "pop_avg": 726292.0,
    "pop_max": 762000,
    "pop_min": 690584,
    "rank": 4,
    "wiki": "Q43595",
    "zone": "Ou\u00e9m\u00e9"
  },
  {
    "country": "LVA",
    "id": 302,
    "latitude": 56.95002382316096,
    "longitude": 24.099965371403187,
    "name": "Riga",
    "pop_avg": 723802.5,
    "pop_max": 742572,
    "pop_min": 705033,
    "rank": 4,
    "wiki": "Q1773",
    "zone": "Riga"
  },
  {
    "country": "DZA",
    "id": 303,
    "latitude": 35.71194831938408,
    "longitude": -0.6219186383503938,
    "name": "Oran",
    "pop_avg": 721992.0,
    "pop_max": 798000,
    "pop_min": 645984,
    "rank": 4,
    "wiki": "Q131818",
    "zone": "Oran"
  },
  {
    "country": "SLV",
    "id": 304,
    "latitude": 13.711947505494038,
    "longitude": -89.2049870794599,
    "name": "San Salvador",
    "pop_avg": 717903.5,
    "pop_max": 1433000,
    "pop_min": 2807,
    "rank": 4,
    "wiki": "Q3110",
    "zone": "San Salvador"
  },
  {
    "country": "HRV",
    "id": 305,
    "latitude": 45.80000673327254,
    "longitude": 15.999994668245677,
    "name": "Zagreb",
    "pop_avg": 710746.0,
    "pop_max": 722526,
    "pop_min": 698966,
    "rank": 4,
    "wiki": "Q1435",
    "zone": "Grad Zagreb"
  },
  {
    "country": "USA",
    "id": 306,
    "latitude": 36.17192024321406,
    "longitude": -86.78193084572632,
    "name": "Nashville",
    "pop_avg": 703926.0,
    "pop_max": 877000,
    "pop_min": 530852,
    "rank": 4,
    "wiki": "Q23197",
    "zone": "Tennessee"
  },
  {
    "country": "MRT",
    "id": 307,
    "latitude": 18.086427021247516,
    "longitude": -15.975340414890013,
    "name": "Nouakchott",
    "pop_avg": 701772.0,
    "pop_max": 742144,
    "pop_min": 661400,
    "rank": 4,
    "wiki": "Q3688",
    "zone": "Nouakchott"
  },
  {
    "country": "ZWE",
    "id": 308,
    "latitude": -20.16999753945231,
    "longitude": 28.580001992514894,
    "name": "Bulawayo",
    "pop_avg": 697096.0,
    "pop_max": 699385,
    "pop_min": 694807,
    "rank": 4,
    "wiki": "Q193250",
    "zone": "Bulawayo"
  },
  {
    "country": "IND",
    "id": 309,
    "latitude": 11.252381872346461,
    "longitude": 75.76804392705947,
    "name": "Kozhikode",
    "pop_avg": 696461.0,
    "pop_max": 953000,
    "pop_min": 439922,
    "rank": 4,
    "wiki": "Q28729",
    "zone": "Kerala"
  },
  {
    "country": "PAK",
    "id": 310,
    "latitude": 33.70194180895959,
    "longitude": 73.16468862105955,
    "name": "Islamabad",
    "pop_avg": 690800.0,
    "pop_max": 780000,
    "pop_min": 601600,
    "rank": 4,
    "wiki": "Q1362",
    "zone": "F.C.T."
  },
  {
    "country": "NGA",
    "id": 311,
    "latitude": 6.450031350628194,
    "longitude": 7.499996702716885,
    "name": "Enugu",
    "pop_avg": 688862.0,
    "pop_max": 688862,
    "pop_min": 688862,
    "rank": 4,
    "wiki": "Q465022",
    "zone": "Enugu"
  },
  {
    "country": "BRA",
    "id": 312,
    "latitude": -20.448086267429005,
    "longitude": -54.61857106369655,
    "name": "Campo Grande",
    "pop_avg": 687723.0,
    "pop_max": 778000,
    "pop_min": 597446,
    "rank": 4,
    "wiki": "Q168929",
    "zone": "Mato Grosso do Sul"
  },
  {
    "country": "MEX",
    "id": 313,
    "latitude": 16.849990864016206,
    "longitude": -99.91597904641071,
    "name": "Acapulco",
    "pop_avg": 683860.0,
    "pop_max": 715584,
    "pop_min": 652136,
    "rank": 4,
    "wiki": "Q81398",
    "zone": "Guerrero"
  },
  {
    "country": "CHN",
    "id": 314,
    "latitude": 27.62195116765929,
    "longitude": 113.84809682434718,
    "name": "Pingxiang",
    "pop_avg": 666561.5,
    "pop_max": 961000,
    "pop_min": 372123,
    "rank": 4,
    "wiki": "Q362865",
    "zone": "Jiangxi"
  },
  {
    "country": "BIH",
    "id": 315,
    "latitude": 43.850022398954934,
    "longitude": 18.383001666953305,
    "name": "Sarajevo",
    "pop_avg": 662816.5,
    "pop_max": 696731,
    "pop_min": 628902,
    "rank": 4,
    "wiki": "Q11194",
    "zone": "Sarajevo"
  },
  {
    "country": "LAO",
    "id": 316,
    "latitude": 17.96669272762739,
    "longitude": 102.59998002015476,
    "name": "Vientiane",
    "pop_avg": 662174.0,
    "pop_max": 754000,
    "pop_min": 570348,
    "rank": 4,
    "wiki": "Q9326",
    "zone": "Vientiane [prefecture]"
  },
  {
    "country": "MDA",
    "id": 317,
    "latitude": 47.005023619670624,
    "longitude": 28.85771113965143,
    "name": "Chi\u0219in\u0103u",
    "pop_avg": 662064.0,
    "pop_max": 688134,
    "pop_min": 635994,
    "rank": 4,
    "wiki": "Q21197",
    "zone": "Chisinau"
  },
  {
    "country": "OMN",
    "id": 318,
    "latitude": 23.613324807728134,
    "longitude": 58.593312132608844,
    "name": "Muscat",
    "pop_avg": 660779.0,
    "pop_max": 734697,
    "pop_min": 586861,
    "rank": 4,
    "wiki": "Q3826",
    "zone": "Muscat"
  },
  {
    "country": "USA",
    "id": 319,
    "latitude": 35.47198880603685,
    "longitude": -97.52062937278737,
    "name": "Oklahoma City",
    "pop_avg": 660475.0,
    "pop_max": 788000,
    "pop_min": 532950,
    "rank": 4,
    "wiki": "Q34863",
    "zone": "Oklahoma"
  },
  {
    "country": "ALB",
    "id": 320,
    "latitude": 41.327540709491586,
    "longitude": 19.81888301461521,
    "name": "Tirana",
    "pop_avg": 658318.0,
    "pop_max": 895350,
    "pop_min": 421286,
    "rank": 4,
    "wiki": "Q19689",
    "zone": "Durr\u00ebs"
  },
  {
    "country": "CHN",
    "id": 321,
    "latitude": 38.46991951080139,
    "longitude": 106.27109161598361,
    "name": "Yinchuan",
    "pop_avg": 657614.0,
    "pop_max": 991000,
    "pop_min": 324228,
    "rank": 4,
    "wiki": "Q211243",
    "zone": "Ningxia Hui"
  },
  {
    "country": "TKM",
    "id": 322,
    "latitude": 37.949994933110986,
    "longitude": 58.38329911177465,
    "name": "Ashgabat",
    "pop_avg": 652841.0,
    "pop_max": 727700,
    "pop_min": 577982,
    "rank": 4,
    "wiki": "Q23438",
    "zone": "Ahal"
  },
  {
    "country": "UZB",
    "id": 323,
    "latitude": 39.6700191437298,
    "longitude": 66.94499873745991,
    "name": "Samarqand",
    "pop_avg": 652150.0,
    "pop_max": 708000,
    "pop_min": 596300,
    "rank": 4,
    "wiki": "Q5753",
    "zone": "Samarkand"
  },
  {
    "country": "NGA",
    "id": 324,
    "latitude": 13.060015481514085,
    "longitude": 5.240031289296439,
    "name": "Sokoto",
    "pop_avg": 648019.5,
    "pop_max": 732178,
    "pop_min": 563861,
    "rank": 4,
    "wiki": "Q336350",
    "zone": "Sokoto"
  },
  {
    "country": "USA",
    "id": 325,
    "latitude": 42.88192410880083,
    "longitude": -78.88194793553828,
    "name": "Buffalo",
    "pop_avg": 647778.5,
    "pop_max": 1016000,
    "pop_min": 279557,
    "rank": 4,
    "wiki": "Q40435",
    "zone": "New York"
  },
  {
    "country": "MWI",
    "id": 326,
    "latitude": -13.983295065469179,
    "longitude": 33.78330195998353,
    "name": "Lilongwe",
    "pop_avg": 646750.0,
    "pop_max": 646750,
    "pop_min": 646750,
    "rank": 4,
    "wiki": "Q3876",
    "zone": "Lilongwe"
  },
  {
    "country": "USA",
    "id": 327,
    "latitude": 36.84995871891391,
    "longitude": -76.28000573902449,
    "name": "Norfolk",
    "pop_avg": 645336.0,
    "pop_max": 1047869,
    "pop_min": 242803,
    "rank": 4,
    "wiki": "Q49231",
    "zone": "Virginia"
  },
  {
    "country": "USA",
    "id": 328,
    "latitude": 41.24000083318924,
    "longitude": -96.00999007341329,
    "name": "Omaha",
    "pop_avg": 643034.0,
    "pop_max": 877110,
    "pop_min": 408958,
    "rank": 4,
    "wiki": "Q43199",
    "zone": "Nebraska"
  },
  {
    "country": "CRI",
    "id": 329,
    "latitude": 9.936958288356607,
    "longitude": -84.08599721127536,
    "name": "San Jos\u00e9",
    "pop_avg": 642862.0,
    "pop_max": 1284000,
    "pop_min": 1724,
    "rank": 4,
    "wiki": "Q3070",
    "zone": "San Jos\u00e9"
  },
  {
    "country": "VEN",
    "id": 330,
    "latitude": 8.37001751600053,
    "longitude": -62.619986818071425,
    "name": "Ciudad Guayana",
    "pop_avg": 634317.5,
    "pop_max": 746535,
    "pop_min": 522100,
    "rank": 4,
    "wiki": "Q507080",
    "zone": "Bol\u00edvar"
  },
  {
    "country": "AFG",
    "id": 331,
    "latitude": 31.610020160950228,
    "longitude": 65.69494584031963,
    "name": "Kandahar",
    "pop_avg": 613871.0,
    "pop_max": 715542,
    "pop_min": 512200,
    "rank": 4,
    "wiki": "Q45604",
    "zone": "Kandahar"
  },
  {
    "country": "RUS",
    "id": 332,
    "latitude": 56.01592862545522,
    "longitude": 92.86405466931535,
    "name": "Krasnoyarsk",
    "pop_avg": 613605.0,
    "pop_max": 925000,
    "pop_min": 302210,
    "rank": 4,
    "wiki": "Q919",
    "zone": "Krasnoyarsk"
  },
  {
    "country": "ERI",
    "id": 333,
    "latitude": 15.333339252681924,
    "longitude": 38.933323525759306,
    "name": "Asmara",
    "pop_avg": 592366.0,
    "pop_max": 620802,
    "pop_min": 563930,
    "rank": 4,
    "wiki": "Q3642",
    "zone": "Anseba"
  },
  {
    "country": "GRC",
    "id": 334,
    "latitude": 40.69805224193027,
    "longitude": 22.88305491317601,
    "name": "Thessaloniki",
    "pop_avg": 591145.0,
    "pop_max": 828000,
    "pop_min": 354290,
    "rank": 4,
    "wiki": "Q17151",
    "zone": "Kentriki Makedonia"
  },
  {
    "country": "IDN",
    "id": 335,
    "latitude": -3.329991842770312,
    "longitude": 114.58007564194736,
    "name": "Bandjarmasin",
    "pop_avg": 588206.5,
    "pop_max": 603576,
    "pop_min": 572837,
    "rank": 4,
    "wiki": "Q14182",
    "zone": "Kalimantan Selatan"
  },
  {
    "country": "RUS",
    "id": 336,
    "latitude": 43.130014667832256,
    "longitude": 131.91002559318872,
    "name": "Vladivostok",
    "pop_avg": 586617.0,
    "pop_max": 587022,
    "pop_min": 586212,
    "rank": 4,
    "wiki": "Q959",
    "zone": "Primor'ye"
  },
  {
    "country": "ARE",
    "id": 337,
    "latitude": 24.466683572379907,
    "longitude": 54.36659338259199,
    "name": "Abu Dhabi",
    "pop_avg": 581861.0,
    "pop_max": 603492,
    "pop_min": 560230,
    "rank": 4,
    "wiki": "Q1519",
    "zone": "Abu Dhabi"
  },
  {
    "country": "MEX",
    "id": 338,
    "latitude": 22.300019957462325,
    "longitude": -97.87000573911087,
    "name": "Tampico",
    "pop_avg": 578351.5,
    "pop_max": 859419,
    "pop_min": 297284,
    "rank": 4,
    "wiki": "Q273014",
    "zone": "Tamaulipas"
  },
  {
    "country": "CAN",
    "id": 339,
    "latitude": 46.83996909493038,
    "longitude": -71.24561019050174,
    "name": "Qu\u00e9bec",
    "pop_avg": 576386.0,
    "pop_max": 624177,
    "pop_min": 528595,
    "rank": 4,
    "wiki": "Q2145",
    "zone": "Qu\u00e9bec"
  },
  {
    "country": "MEX",
    "id": 340,
    "latitude": 19.177342345145235,
    "longitude": -96.15998091814049,
    "name": "Veracruz",
    "pop_avg": 573638.0,
    "pop_max": 578963,
    "pop_min": 568313,
    "rank": 4,
    "wiki": "Q173270",
    "zone": "Veracruz"
  },
  {
    "country": "RUS",
    "id": 341,
    "latitude": 52.31997051910588,
    "longitude": 104.24504756573407,
    "name": "Irkutsk",
    "pop_avg": 572325.0,
    "pop_max": 586695,
    "pop_min": 557955,
    "rank": 4,
    "wiki": "Q6576",
    "zone": "Irkutsk"
  },
  {
    "country": "USA",
    "id": 342,
    "latitude": 40.77696215404006,
    "longitude": -111.93199778104821,
    "name": "Salt Lake City",
    "pop_avg": 572013.0,
    "pop_max": 966000,
    "pop_min": 178026,
    "rank": 4,
    "wiki": "Q23337",
    "zone": "Utah"
  },
  {
    "country": "RUS",
    "id": 343,
    "latitude": 53.354997781479824,
    "longitude": 83.74500687554809,
    "name": "Barnaul",
    "pop_avg": 569711.0,
    "pop_max": 599579,
    "pop_min": 539843,
    "rank": 4,
    "wiki": "Q6014",
    "zone": "Altay"
  },
  {
    "country": "BRA",
    "id": 344,
    "latitude": -27.57803866003553,
    "longitude": -48.52196644941432,
    "name": "Florian\u00f3polis",
    "pop_avg": 568783.0,
    "pop_max": 1023000,
    "pop_min": 114566,
    "rank": 4,
    "wiki": "Q132997",
    "zone": "Santa Catarina"
  },
  {
    "country": "MMR",
    "id": 345,
    "latitude": 19.76850288475015,
    "longitude": 96.11667267063035,
    "name": "Naypyidaw",
    "pop_avg": 562412.0,
    "pop_max": 930000,
    "pop_min": 194824,
    "rank": 4,
    "wiki": "Q37400",
    "zone": "Mandalay"
  },
  {
    "country": "ARG",
    "id": 346,
    "latitude": -38.00002032598195,
    "longitude": -57.579984376644916,
    "name": "Mar del Plata",
    "pop_avg": 554916.0,
    "pop_max": 555897,
    "pop_min": 553935,
    "rank": 4,
    "wiki": "Q52607",
    "zone": "Ciudad de Buenos Aires"
  },
  {
    "country": "CHL",
    "id": 347,
    "latitude": -36.83001422246167,
    "longitude": -73.05002201505323,
    "name": "Concepci\u00f3n",
    "pop_avg": 550864.0,
    "pop_max": 889725,
    "pop_min": 212003,
    "rank": 4,
    "wiki": "Q1880",
    "zone": "B\u00edo-B\u00edo"
  },
  {
    "country": "EGY",
    "id": 348,
    "latitude": 25.7000191436739,
    "longitude": 32.65003779982271,
    "name": "Luxor",
    "pop_avg": 548572.0,
    "pop_max": 609248,
    "pop_min": 487896,
    "rank": 4,
    "wiki": "Q130514",
    "zone": "Qina"
  },
  {
    "country": "GAB",
    "id": 349,
    "latitude": 0.3853886097185182,
    "longitude": 9.457965045823698,
    "name": "Libreville",
    "pop_avg": 530755.5,
    "pop_max": 578156,
    "pop_min": 483355,
    "rank": 4,
    "wiki": "Q3825",
    "zone": "Estuaire"
  },
  {
    "country": "LTU",
    "id": 350,
    "latitude": 54.68336631175862,
    "longitude": 25.3166352932829,
    "name": "Vilnius",
    "pop_avg": 524697.5,
    "pop_max": 542366,
    "pop_min": 507029,
    "rank": 4,
    "wiki": "Q216",
    "zone": "Vilniaus"
  },
  {
    "country": "PER",
    "id": 351,
    "latitude": -8.120035381200978,
    "longitude": -79.01996769378803,
    "name": "Trujillo",
    "pop_avg": 521046.0,
    "pop_max": 765171,
    "pop_min": 276921,
    "rank": 4,
    "wiki": "Q214173",
    "zone": "La Libertad"
  },
  {
    "country": "MOZ",
    "id": 352,
    "latitude": -19.820044739971706,
    "longitude": 34.87000565464939,
    "name": "Beira",
    "pop_avg": 507196.5,
    "pop_max": 530604,
    "pop_min": 483789,
    "rank": 4,
    "wiki": "Q211563",
    "zone": "Sofala"
  },
  {
    "country": "SDN",
    "id": 353,
    "latitude": 19.61579103492562,
    "longitude": 37.21642573929415,
    "name": "Port Sudan",
    "pop_avg": 489725.0,
    "pop_max": 489725,
    "pop_min": 489725,
    "rank": 4,
    "wiki": "Q208718",
    "zone": "Red Sea"
  },
  {
    "country": "MEX",
    "id": 354,
    "latitude": 21.16995973610375,
    "longitude": -86.83000777357188,
    "name": "Canc\u00fan",
    "pop_avg": 489452.5,
    "pop_max": 542043,
    "pop_min": 436862,
    "rank": 4,
    "wiki": "Q8969",
    "zone": "Quintana Roo"
  },
  {
    "country": "MEX",
    "id": 355,
    "latitude": 16.749996967531274,
    "longitude": -93.15000960465187,
    "name": "Tuxtla Guti\u00e9rrez",
    "pop_avg": 473719.0,
    "pop_max": 481128,
    "pop_min": 466310,
    "rank": 4,
    "wiki": "Q207429",
    "zone": "Chiapas"
  },
  {
    "country": "CHN",
    "id": 356,
    "latitude": 39.476335875499956,
    "longitude": 75.9699259022097,
    "name": "Kashgar",
    "pop_avg": 472069.5,
    "pop_max": 543914,
    "pop_min": 400225,
    "rank": 4,
    "wiki": "Q170521",
    "zone": "Xinjiang Uygur"
  },
  {
    "country": "RUS",
    "id": 357,
    "latitude": 56.49498699861488,
    "longitude": 84.97500931695924,
    "name": "Tomsk",
    "pop_avg": 471950.0,
    "pop_max": 535479,
    "pop_min": 408421,
    "rank": 4,
    "wiki": "Q976",
    "zone": "Tomsk"
  },
  {
    "country": "COD",
    "id": 358,
    "latitude": -5.030043112308363,
    "longitude": 18.850001585574944,
    "name": "Kikwit",
    "pop_avg": 465973.0,
    "pop_max": 637736,
    "pop_min": 294210,
    "rank": 4,
    "wiki": "Q261887",
    "zone": "Bandundu"
  },
  {
    "country": "ZAF",
    "id": 359,
    "latitude": -29.119993877378704,
    "longitude": 26.22991288117737,
    "name": "Bloemfontein",
    "pop_avg": 459866.5,
    "pop_max": 463064,
    "pop_min": 456669,
    "rank": 4,
    "wiki": "Q37701",
    "zone": "Orange Free State"
  },
  {
    "country": "BRA",
    "id": 360,
    "latitude": -12.250015849967497,
    "longitude": -38.97000919753407,
    "name": "Feira de Santana",
    "pop_avg": 449194.5,
    "pop_max": 481911,
    "pop_min": 416478,
    "rank": 4,
    "wiki": "Q194343",
    "zone": "Bahia"
  },
  {
    "country": "CHL",
    "id": 361,
    "latitude": -33.045818607974184,
    "longitude": -71.62295949149893,
    "name": "Valpara\u00edso",
    "pop_avg": 434969.0,
    "pop_max": 854000,
    "pop_min": 15938,
    "rank": 4,
    "wiki": "Q33986",
    "zone": "Valpara\u00edso"
  },
  {
    "country": "BRA",
    "id": 362,
    "latitude": 0.033007017920226644,
    "longitude": -51.05002120116308,
    "name": "Macap\u00e1",
    "pop_avg": 433781.5,
    "pop_max": 499166,
    "pop_min": 368397,
    "rank": 4,
    "wiki": "Q180215",
    "zone": "Amap\u00e1"
  },