[
  {
    "country": "JPN",
    "geometry": {
      "coordinates": [
        139.74946157054467,
        35.686962764371174
      ],
      "type": "Point"
    },
    "id": 1,
    "name": "Tokyo",
    "pop_avg": 22006299.5,
    "pop_max": 35676000,
    "pop_min": 8336599,
    "rank": 1,
    "type": "Feature",
    "wiki": "Q1490",
    "zone": "Tokyo"
  },
  {
    "country": "IND",
    "geometry": {
      "coordinates": [
        72.85504343876647,
        19.0189362343566
      ],
      "type": "Point"
    },
    "id": 2,
    "name": "Mumbai",
    "pop_avg": 15834918.0,
    "pop_max": 18978000,
    "pop_min": 12691836,
    "rank": 1,
    "type": "Feature",
    "wiki": "Q1156",
    "zone": "Maharashtra"
  },
  {
    "country": "MEX",
    "geometry": {
      "coordinates": [
        -99.1329340602939,
        19.444388301415472
      ],
      "type": "Point"
    },
    "id": 3,
    "name": "Mexico City",
    "pop_avg": 14919501.0,
    "pop_max": 19028000,
    "pop_min": 10811002,
    "rank": 1,
    "type": "Feature",
    "wiki": "Q1489",
    "zone": "Distrito Federal"
  },
  {
    "country": "CHN",
    "geometry": {
      "coordinates": [
        121.43455881982015,
        31.218398311228327
      ],
      "type": "Point"
    },
    "id": 4,
    "name": "Shanghai",
    "pop_avg": 14797756.0,
    "pop_max": 14987000,
    "pop_min": 14608512,
    "rank": 1,
    "type": "Feature",
    "wiki": "Q8686",
    "zone": "Shanghai"
  },
  {
    "country": "BRA",
    "geometry": {
      "coordinates": [
        -46.62696583905523,
        -23.55673372837896
      ],
      "type": "Point"
    },
    "id": 5,
    "name": "S\u00e3o Paulo",
    "pop_avg": 14433147.5,
    "pop_max": 18845000,
    "pop_min": 10021295,
    "rank": 1,
    "type": "Feature",
    "wiki": "Q174",
    "zone": "S\u00e3o Paulo"
  },
  {
    "country": "USA",
    "geometry": {
      "coordinates": [
        -73.98196278740681,
        40.75192492259464
      ],
      "type": "Point"
    },
    "id": 6,
    "name": "New York",
    "pop_avg": 13524139.0,
    "pop_max": 19040000,
    "pop_min": 8008278,
    "rank": 1,
    "type": "Feature",
    "wiki": "Q60",
    "zone": "New York"
  },
  {
    "country": "RUS",
    "geometry": {
      "coordinates": [
        37.6135769672714,
        55.75410998124818
      ],
      "type": "Point"
    },
    "id": 7,
    "name": "Moscow",
    "pop_avg": 10452000.0,
    "pop_max": 10452000,
    "pop_min": 10452000,
    "rank": 1,
    "type": "Feature",
    "wiki": "Q649",
    "zone": "Moskva"
  },
  {
    "country": "TUR",
    "geometry": {
      "coordinates": [
        29.008055727002613,
        41.10694201243979
      ],
      "type": "Point"
    },
    "id": 8,
    "name": "Istanbul",
    "pop_avg": 10003305.0,
    "pop_max": 10061000,
    "pop_min": 9945610,
    "rank": 1,
    "type": "Feature",
    "wiki": "Q406",
    "zone": "Istanbul"
  },
  {
    "country": "EGY",
    "geometry": {
      "coordinates": [
        31.248022361126118,
        30.051906205103705
      ],
      "type": "Point"
    },
    "id": 9,
    "name": "Cairo",
    "pop_avg": 9813807.0,
    "pop_max": 11893000,
    "pop_min": 7734614,
    "rank": 1,
    "type": "Feature",
    "wiki": "Q85",
    "zone": "Al Qahirah"
  },
  {
    "country": "IND",
    "geometry": {
      "coordinates": [
        88.32272979950551,
        22.49691515689642
      ],
      "type": "Point"
    },
    "id": 10,
    "name": "Kolkata",
    "pop_avg": 9709196.0,
    "pop_max": 14787000,
    "pop_min": 4631392,
    "rank": 1,
    "type": "Feature",
    "wiki": "Q1348",
    "zone": "West Bengal"
  },
  {
    "country": "CHN",
    "geometry": {
      "coordinates": [
        116.38633982565943,
        39.93083808990906
      ],
      "type": "Point"
    },
    "id": 11,
    "name": "Beijing",
    "pop_avg": 9293300.5,
    "pop_max": 11106000,
    "pop_min": 7480601,
    "rank": 1,
    "type": "Feature",
    "wiki": "Q956",
    "zone": "Beijing"
  },
  {
    "country": "IDN",
    "geometry": {
      "coordinates": [
        106.82749176247012,
        -6.172471846798885
      ],
      "type": "Point"
    },
    "id": 12,
    "name": "Jakarta",
    "pop_avg": 8832560.5,
    "pop_max": 9125000,
    "pop_min": 8540121,
    "rank": 1,
    "type": "Feature",
    "wiki": "Q3630",
    "zone": "Jakarta Raya"
  },
  {
    "country": "USA",
    "geometry": {
      "coordinates": [
        -118.18192636994041,
        33.99192410876543
      ],
      "type": "Point"
    },
    "id": 13,
    "name": "Los Angeles",
    "pop_avg": 8097410.0,
    "pop_max": 12500000,
    "pop_min": 3694820,
    "rank": 1,
    "type": "Feature",
    "wiki": "Q65",
    "zone": "California"
  },
  {
    "country": "GBR",
    "geometry": {
      "coordinates": [
        -0.11866770247593195,
        51.5019405883275
      ],
      "type": "Point"
    },
    "id": 14,
    "name": "London",
    "pop_avg": 7994104.5,
    "pop_max": 8567000,
    "pop_min": 7421209,
    "rank": 1,
    "type": "Feature",
    "wiki": "Q84",
    "zone": "Westminster"
  },
  {
    "country": "COL",
    "geometry": {
      "coordinates": [
        -74.08528981377441,
        4.598369421147822
      ],
      "type": "Point"
    },
    "id": 15,
    "name": "Bogota",
    "pop_avg": 7052830.5,
    "pop_max": 7772000,
    "pop_min": 6333661,
    "rank": 1,
    "type": "Feature",
    "wiki": "Q2841",
    "zone": "Bogota"
  },
  {
    "country": "BRA",
    "geometry": {
      "coordinates": [
        -43.22696665284366,
        -22.923077315615956
      ],
      "type": "Point"
    },
    "id": 16,
    "name": "Rio de Janeiro",
    "pop_avg": 6879087.5,
    "pop_max": 11748000,
    "pop_min": 2010175,
    "rank": 1,
    "type": "Feature",
    "wiki": "Q8678",
    "zone": "Rio de Janeiro"
  },
  {
    "country": "CHN",
    "geometry": {
      "coordinates": [
        114.18306345846304,
        22.30692675357551
      ],
      "type": "Point"
    },
    "id": 17,
    "name": "Hong Kong",
    "pop_avg": 5878789.5,
    "pop_max": 7206000,
    "pop_min": 4551579,
    "rank": 1,
    "type": "Feature",
    "wiki": "Q8646",
    "zone": ""
  },
  {
    "country": "FRA",
    "geometry": {
      "coordinates": [
        2.33138946713035,
        48.86863878981461
      ],
      "type": "Point"
    },
    "id": 18,
    "name": "Paris",
    "pop_avg": 4957588.5,
    "pop_max": 9904000,
    "pop_min": 11177,
    "rank": 1,
    "type": "Feature",
    "wiki": "Q90",
    "zone": "\u00cele-de-France"
  },
  {
    "country": "NGA",
    "geometry": {
      "coordinates": [
        3.3895852125984334,
        6.445207512093191
      ],
      "type": "Point"
    },
    "id": 19,
    "name": "Lagos",
    "pop_avg": 4733768.0,
    "pop_max": 9466000,
    "pop_min": 1536,
    "rank": 1,
    "type": "Feature",
    "wiki": "Q8673",
    "zone": "Lagos"
  },
  {
    "country": "SAU",
    "geometry": {
      "coordinates": [
        46.770795798688255,
        24.642779007816443
      ],
      "type": "Point"
    },
    "id": 20,
    "name": "Riyadh",
    "pop_avg": 4335480.5,
    "pop_max": 4465000,
    "pop_min": 4205961,
    "rank": 1,
    "type": "Feature",
    "wiki": "Q3692",
    "zone": "Ar Riyad"
  },
  {
    "country": "SGP",
    "geometry": {
      "coordinates": [
        103.85387481909902,
        1.2949793251059418
      ],
      "type": "Point"
    },
    "id": 21,
    "name": "Singapore",
    "pop_avg": 4236614.5,
    "pop_max": 5183700,
    "pop_min": 3289529,
    "rank": 1,
    "type": "Feature",
    "wiki": "Q334",
    "zone": ""
  },
  {
    "country": "AUS",
    "geometry": {
      "coordinates": [
        151.1832339501475,
        -33.91806510862875
      ],
      "type": "Point"
    },
    "id": 22,
    "name": "Sydney",
    "pop_avg": 4135711.0,
    "pop_max": 4630000,
    "pop_min": 3641422,
    "rank": 1,
    "type": "Feature",
    "wiki": "Q3130",
    "zone": "New South Wales"
  },
  {
    "country": "CHL",
    "geometry": {
      "coordinates": [
        -70.66898671317483,
        -33.448067956934096
      ],
      "type": "Point"
    },
    "id": 23,
    "name": "Santiago",
    "pop_avg": 2883305.5,
    "pop_max": 5720000,
    "pop_min": 46611,
    "rank": 1,
    "type": "Feature",
    "wiki": "Q2887",
    "zone": "Regi\u00f3n Metropolitana de Santiago"
  },
  {
    "country": "KEN",
    "geometry": {
      "coordinates": [
        36.81471100047145,
        -1.2814008832377795
      ],
      "type": "Point"
    },
    "id": 24,
    "name": "Nairobi",
    "pop_avg": 2880273.5,
    "pop_max": 3010000,
    "pop_min": 2750547,
    "rank": 1,
    "type": "Feature",
    "wiki": "Q3870",
    "zone": "Nairobi"
  },
  {
    "country": "ZAF",
    "geometry": {
      "coordinates": [
        18.43304229922603,
        -33.91806510862875
      ],
      "type": "Point"
    },
    "id": 25,
    "name": "Cape Town",
    "pop_avg": 2823929.0,
    "pop_max": 3215000,
    "pop_min": 2432858,
    "rank": 1,
    "type": "Feature",
    "wiki": "Q5465",
    "zone": "Western Cape"
  },
  {
    "country": "USA",
    "geometry": {
      "coordinates": [
        -77.01136443943716,
        38.901495235087054
      ],
      "type": "Point"
    },
    "id": 26,
    "name": "Washington, D.C.",
    "pop_avg": 2445216.5,
    "pop_max": 4338000,
    "pop_min": 552433,
    "rank": 1,
    "type": "Feature",
    "wiki": "Q61",
    "zone": "District of Columbia"
  },
  {
    "country": "ITA",
    "geometry": {
      "coordinates": [
        12.481312562873995,
        41.89790148509894
      ],
      "type": "Point"
    },
    "id": 27,
    "name": "Rome",
    "pop_avg": 1687226.0,
    "pop_max": 3339000,
    "pop_min": 35452,
    "rank": 1,
    "type": "Feature",
    "wiki": "Q220",
    "zone": "Lazio"
  },
  {
    "country": "ARG",
    "geometry": {
      "coordinates": [
        -58.399477232331435,
        -34.600555749907414
      ],
      "type": "Point"
    },
    "id": 28,
    "name": "Buenos Aires",
    "pop_avg": 11862073.0,
    "pop_max": 12795000,
    "pop_min": 10929146,
    "rank": 2,
    "type": "Feature",
    "wiki": "Q1486",
    "zone": "Ciudad de Buenos Aires"
  },
  {
    "country": "KOR",
    "geometry": {
      "coordinates": [
        126.99778513820195,
        37.56829495838895
      ],
      "type": "Point"
    },
    "id": 29,
    "name": "Seoul",
    "pop_avg": 9796000.0,
    "pop_max": 9796000,
    "pop_min": 9796000,
    "rank": 2,
    "type": "Feature",
    "wiki": "Q8684",
    "zone": "Seoul"
  },
  {
    "country": "IRN",
    "geometry": {
      "coordinates": [
        51.42239817500899,
        35.673888627001304
      ],
      "type": "Point"
    },
    "id": 30,
    "name": "Tehran",
    "pop_avg": 7513154.5,
    "pop_max": 7873000,
    "pop_min": 7153309,
    "rank": 2,
    "type": "Feature",
    "wiki": "Q3616",
    "zone": "Tehran"
  },
  {
    "country": "PER",
    "geometry": {
      "coordinates": [
        -77.05200795343472,
        -12.04606681752557
      ],
      "type": "Point"
    },
    "id": 31,
    "name": "Lima",
    "pop_avg": 7385117.0,
    "pop_max": 8012000,
    "pop_min": 6758234,
    "rank": 2,
    "type": "Feature",
    "wiki": "Q2868",
    "zone": "Lima"
  },
  {
    "country": "PHL",
    "geometry": {
      "coordinates": [
        120.9802713035424,
        14.606104813440538
      ],
      "type": "Point"
    },
    "id": 32,
    "name": "Manila",
    "pop_avg": 7088787.5,
    "pop_max": 11100000,
    "pop_min": 3077575,
    "rank": 2,
    "type": "Feature",
    "wiki": "Q1461",
    "zone": "Metropolitan Manila"
  },
  {
    "country": "JPN",
    "geometry": {
      "coordinates": [
        135.4581989565952,
        34.75198107491417
      ],
      "type": "Point"
    },
    "id": 33,
    "name": "\u014csaka",
    "pop_avg": 6943206.5,
    "pop_max": 11294000,
    "pop_min": 2592413,
    "rank": 2,
    "type": "Feature",
    "wiki": "Q35765",
    "zone": "Osaka"
  },
  {
    "country": "COD",
    "geometry": {
      "coordinates": [
        15.313026023171744,
        -4.327778243275986
      ],
      "type": "Point"
    },
    "id": 34,
    "name": "Kinshasa",
    "pop_avg": 6704351.5,
    "pop_max": 7843000,
    "pop_min": 5565703,
    "rank": 2,
    "type": "Feature",
    "wiki": "Q3838",
    "zone": "Kinshasa City"
  },
  {
    "country": "IND",
    "geometry": {
      "coordinates": [
        77.55806386521755,
        12.97194099507442
      ],
      "type": "Point"
    },
    "id": 35,
    "name": "Bangalore",
    "pop_avg": 5945523.5,
    "pop_max": 6787000,
    "pop_min": 5104047,
    "rank": 2,
    "type": "Feature",
    "wiki": "Q1355",
    "zone": "Karnataka"
  },
  {
    "country": "USA",
    "geometry": {
      "coordinates": [
        -87.75200083270931,
        41.83193651927843
      ],
      "type": "Point"
    },
    "id": 36,
    "name": "Chicago",
    "pop_avg": 5915976.0,
    "pop_max": 8990000,
    "pop_min": 2841952,
    "rank": 2,
    "type": "Feature",
    "wiki": "Q1297",
    "zone": "Illinois"
  },
  {
    "country": "THA",
    "geometry": {
      "coordinates": [
        100.51469879369489,
        13.751945064087977
      ],
      "type": "Point"
    },
    "id": 37,
    "name": "Bangkok",
    "pop_avg": 5904238.0,
    "pop_max": 6704000,
    "pop_min": 5104476,
    "rank": 2,
    "type": "Feature",
    "wiki": "Q1861",
    "zone": "Bangkok Metropolis"
  },
  {
    "country": "IRQ",
    "geometry": {
      "coordinates": [
        44.391922914564134,
        33.34059435615865
      ],
      "type": "Point"
    },
    "id": 38,
    "name": "Baghdad",
    "pop_avg": 5054000.0,
    "pop_max": 5054000,
    "pop_min": 5054000,
    "rank": 2,
    "type": "Feature",
    "wiki": "Q1530",
    "zone": "Baghdad"
  },
  {
    "country": "CHN",
    "geometry": {
      "coordinates": [
        121.568333333333,
        25.0358333333333
      ],
      "type": "Point"
    },
    "id": 39,
    "name": "Taipei",
    "pop_avg": 4759522.5,
    "pop_max": 6900273,
    "pop_min": 2618772,
    "rank": 2,
    "type": "Feature",
    "wiki": "Q1867",
    "zone": "Taipei City"
  },
  {
    "country": "CAN",
    "geometry": {
      "coordinates": [
        -79.42196665298843,
        43.70192573640844
      ],
      "type": "Point"
    },
    "id": 40,
    "name": "Toronto",
    "pop_avg": 4573710.5,
    "pop_max": 5213000,
    "pop_min": 3934421,
    "rank": 2,
    "type": "Feature",
    "wiki": "Q172",
    "zone": "Ontario"
  },
  {
    "country": "USA",
    "geometry": {
      "coordinates": [
        -95.341925149146,
        29.821920243188856
      ],
      "type": "Point"
    },
    "id": 41,
    "name": "Houston",
    "pop_avg": 4053287.0,
    "pop_max": 4459000,
    "pop_min": 3647574,
    "rank": 2,
    "type": "Feature",
    "wiki": "Q16555",
    "zone": "Texas"
  },
  {
    "country": "CHN",
    "geometry": {
      "coordinates": [
        104.06807363094873,
        30.671945877957796
      ],
      "type": "Point"
    },
    "id": 42,
    "name": "Chengdu",
    "pop_avg": 4036718.5,
    "pop_max": 4123000,
    "pop_min": 3950437,
    "rank": 2,
    "type": "Feature",
    "wiki": "Q30002",
    "zone": "Sichuan"
  },
  {
    "country": "DEU",
    "geometry": {
      "coordinates": [
        13.399602764700546,
        52.523764522251156
      ],
      "type": "Point"
    },
    "id": 43,
    "name": "Berlin",
    "pop_avg": 3250007.0,
    "pop_max": 3406000,
    "pop_min": 3094014,
    "rank": 2,
    "type": "Feature",
    "wiki": "Q64",
    "zone": "Berlin"
  },
  {
    "country": "MAR",
    "geometry": {
      "coordinates": [
        -7.618313291698712,
        33.60192207425848
      ],
      "type": "Point"
    },
    "id": 44,
    "name": "Casablanca",
    "pop_avg": 3162954.5,
    "pop_max": 3181000,
    "pop_min": 3144909,
    "rank": 2,
    "type": "Feature",
    "wiki": "Q7903",
    "zone": "Grand Casablanca"
  },
  {
    "country": "AFG",
    "geometry": {
      "coordinates": [
        69.18131419070505,
        34.51863614490031
      ],
      "type": "Point"
    },
    "id": 45,
    "name": "Kabul",
    "pop_avg": 3160266.0,
    "pop_max": 3277000,
    "pop_min": 3043532,
    "rank": 2,
    "type": "Feature",
    "wiki": "Q5838",
    "zone": "Kabul"
  },
  {
    "country": "USA",
    "geometry": {
      "coordinates": [
        -80.22605193945003,
        25.789556555021534
      ],
      "type": "Point"
    },
    "id": 46,
    "name": "Miami",
    "pop_avg": 2983947.0,
    "pop_max": 5585000,
    "pop_min": 382894,
    "rank": 2,
    "type": "Feature",
    "wiki": "Q8652",
    "zone": "Florida"
  },
  {
    "country": "ETH",
    "geometry": {
      "coordinates": [
        38.69805857534868,
        9.035256221295754
      ],
      "type": "Point"
    },
    "id": 47,
    "name": "Addis Ababa",
    "pop_avg": 2928864.5,
    "pop_max": 3100000,
    "pop_min": 2757729,
    "rank": 2,
    "type": "Feature",
    "wiki": "Q3624",
    "zone": "Addis Ababa"
  },
  {
    "country": "ESP",
    "geometry": {
      "coordinates": [
        -3.6852975446125242,
        40.40197212311381
      ],
      "type": "Point"
    },
    "id": 48,
    "name": "Madrid",
    "pop_avg": 2808718.5,
    "pop_max": 5567000,
    "pop_min": 50437,
    "rank": 2,
    "type": "Feature",
    "wiki": "Q2807",
    "zone": "Comunidad de Madrid"
  },
  {
    "country": "ZAF",
    "geometry": {
      "coordinates": [
        28.028063865019476,
        -26.16809888138414
      ],
      "type": "Point"
    },
    "id": 49,
    "name": "Johannesburg",
    "pop_avg": 2730734.5,
    "pop_max": 3435000,
    "pop_min": 2026469,
    "rank": 2,
    "type": "Feature",
    "wiki": "Q34647",
    "zone": "Gauteng"
  },
  {
    "country": "SEN",
    "geometry": {
      "coordinates": [
        -17.47507598705056,
        14.717777583623274
      ],
      "type": "Point"
    },
    "id": 50,
    "name": "Dakar",
    "pop_avg": 2540200.0,
    "pop_max": 2604000,
    "pop_min": 2476400,
    "rank": 2,
    "type": "Feature",
    "wiki": "Q3718",
    "zone": "Dakar"
  },
  {
    "country": "USA",
    "geometry": {
      "coordinates": [
        -84.40189524187565,
        33.83195971260585
      ],
      "type": "Point"
    },
    "id": 51,
    "name": "Atlanta",
    "pop_avg": 2464454.0,
    "pop_max": 4506000,
    "pop_min": 422908,
    "rank": 2,
    "type": "Feature",
    "wiki": "Q23556",
    "zone": "Georgia"
  },
  {
    "country": "MEX",
    "geometry": {
      "coordinates": [
        -100.33193064232995,
        25.671940995125283
      ],
      "type": "Point"
    },
    "id": 52,
    "name": "Monterrey",
    "pop_avg": 2417437.0,
    "pop_max": 3712000,
    "pop_min": 1122874,
    "rank": 2,
    "type": "Feature",
    "wiki": "Q81033",
    "zone": "Nuevo Le\u00f3n"
  },
  {
    "country": "VEN",
    "geometry": {
      "coordinates": [
        -66.91898305105042,
        10.502944413033333
      ],
      "type": "Point"
    },
    "id": 53,
    "name": "Caracas",
    "pop_avg": 2400339.5,
    "pop_max": 2985000,
    "pop_min": 1815679,
    "rank": 2,
    "type": "Feature",
    "wiki": "Q1533",
    "zone": "Distrito Capital"
  },
  {
    "country": "UKR",
    "geometry": {
      "coordinates": [
        30.514682110472165,
        50.43531318760722
      ],
      "type": "Point"
    },
    "id": 54,
    "name": "Kiev",
    "pop_avg": 2185754.0,
    "pop_max": 2709000,
    "pop_min": 1662508,
    "rank": 2,
    "type": "Feature",
    "wiki": "Q1899",
    "zone": "Kiev"
  },
  {
    "country": "AUS",
    "geometry": {
      "coordinates": [
        144.97307037590406,
        -37.81808545369631
      ],
      "type": "Point"
    },
    "id": 55,
    "name": "Melbourne",
    "pop_avg": 2131812.5,
    "pop_max": 4170000,
    "pop_min": 93625,
    "rank": 2,
    "type": "Feature",
    "wiki": "Q3141",
    "zone": "Victoria"
  },
  {
    "country": "USA",
    "geometry": {
      "coordinates": [
        -122.41716877355225,
        37.76919562968743
      ],
      "type": "Point"
    },
    "id": 56,
    "name": "San Francisco",
    "pop_avg": 2091036.0,
    "pop_max": 3450000,
    "pop_min": 732072,
    "rank": 2,
    "type": "Feature",
    "wiki": "Q62",
    "zone": "California"
  },
  {
    "country": "UZB",
    "geometry": {
      "coordinates": [
        69.29298696088779,
        41.31364774160721
      ],
      "type": "Point"
    },
    "id": 57,
    "name": "Tashkent",
    "pop_avg": 2081014.0,
    "pop_max": 2184000,
    "pop_min": 1978028,
    "rank": 2,
    "type": "Feature",
    "wiki": "Q269",
    "zone": "Tashkent"
  },
  {
    "country": "AUT",
    "geometry": {
      "coordinates": [
        16.364693096743736,
        48.20196113681686
      ],
      "type": "Point"
    },
    "id": 58,
    "name": "Vienna",
    "pop_avg": 2065500.0,
    "pop_max": 2400000,
    "pop_min": 1731000,
    "rank": 2,
    "type": "Feature",
    "wiki": "Q1741",
    "zone": "Wien"
  },
  {
    "country": "GRC",
    "geometry": {
      "coordinates": [
        23.731375225679358,
        37.98527209055226
      ],
      "type": "Point"
    },
    "id": 59,
    "name": "Athens",
    "pop_avg": 1985568.5,
    "pop_max": 3242000,
    "pop_min": 729137,
    "rank": 2,
    "type": "Feature",
    "wiki": "Q1524",
    "zone": "Attiki"
  },
  {
    "country": "USA",
    "geometry": {
      "coordinates": [
        -104.9859618109682,
        39.7411339069655
      ],
      "type": "Point"
    },
    "id": 60,
    "name": "Denver",
    "pop_avg": 1930799.5,
    "pop_max": 2313000,
    "pop_min": 1548599,
    "rank": 2,
    "type": "Feature",
    "wiki": "Q16554",
    "zone": "Colorado"
  },
  {
    "country": "CHN",
    "geometry": {
      "coordinates": [
        87.57305979624726,
        43.8069580850418
      ],
      "type": "Point"
    },
    "id": 61,
    "name": "\u00dcr\u00fcmqi",
    "pop_avg": 1829612.5,
    "pop_max": 2151000,
    "pop_min": 1508225,
    "rank": 2,
    "type": "Feature",
    "wiki": "Q16959",
    "zone": "Xinjiang Uygur"
  },
  {
    "country": "CAN",
    "geometry": {
      "coordinates": [
        -123.1235900763943,
        49.27536244271175
      ],
      "type": "Point"
    },
    "id": 62,
    "name": "Vancouver",
    "pop_avg": 1458415.0,
    "pop_max": 2313328,
    "pop_min": 603502,
    "rank": 2,
    "type": "Feature",
    "wiki": "Q24639",
    "zone": "British Columbia"
  },
  {
    "country": "SWE",
    "geometry": {
      "coordinates": [
        18.095388874180912,
        59.35270581286585
      ],
      "type": "Point"
    },
    "id": 63,
    "name": "Stockholm",
    "pop_avg": 1258654.5,
    "pop_max": 1264000,
    "pop_min": 1253309,
    "rank": 2,
    "type": "Feature",
    "wiki": "Q1754",
    "zone": "Stockholm"
  },
  {
    "country": "ARE",
    "geometry": {
      "coordinates": [
        55.27802846473787,
        25.231942012376066
      ],
      "type": "Point"
    },
    "id": 64,
    "name": "Dubai",
    "pop_avg": 1258173.5,
    "pop_max": 1379000,
    "pop_min": 1137347,
    "rank": 2,
    "type": "Feature",
    "wiki": "Q612",
    "zone": "Dubay"
  },
  {
    "country": "NZL",
    "geometry": {
      "coordinates": [
        174.76302698707957,
        -36.848054894932005
      ],
      "type": "Point"
    },
    "id": 65,
    "name": "Auckland",
    "pop_avg": 886591.0,
    "pop_max": 1377200,
    "pop_min": 395982,
    "rank": 2,
    "type": "Feature",
    "wiki": "Q37100",
    "zone": "Auckland"
  },
  {
    "country": "NLD",
    "geometry": {
      "coordinates": [
        4.914694317400972,
        52.35191454666443
      ],
      "type": "Point"
    },
    "id": 66,
    "name": "Amsterdam",
    "pop_avg": 886318.0,
    "pop_max": 1031000,
    "pop_min": 741636,
    "rank": 2,
    "type": "Feature",
    "wiki": "Q727",
    "zone": "Noord-Holland"
  },
  {
    "country": "CHE",
    "geometry": {
      "coordinates": [
        6.140028034091699,
        46.21000754707626
      ],
      "type": "Point"
    },
    "id": 67,
    "name": "Geneva",
    "pop_avg": 716192.5,
    "pop_max": 1240000,
    "pop_min": 192385,
    "rank": 2,
    "type": "Feature",
    "wiki": "Q71",
    "zone": "Gen\u00e8ve"
  },
  {
    "country": "IND",
    "geometry": {
      "coordinates": [
        77.19998002005303,
        28.600023009245433
      ],
      "type": "Point"
    },
    "id": 68,
    "name": "New Delhi",
    "pop_avg": 317797.0,
    "pop_max": 317797,
    "pop_min": 317797,
    "rank": 2,
    "type": "Feature",
    "wiki": "Q987",
    "zone": "Delhi"
  },
  {
    "country": "PAK",
    "geometry": {
      "coordinates": [
        66.98806305137339,
        24.87193814681484
      ],
      "type": "Point"
    },
    "id": 69,
    "name": "Karachi",
    "pop_avg": 11877109.5,
    "pop_max": 12130000,
    "pop_min": 11624219,
    "rank": 3,
    "type": "Feature",
    "wiki": "Q8660",
    "zone": "Sind"
  },
  {
    "country": "IND",
    "geometry": {
      "coordinates": [
        77.22805816860182,
        28.671938757181522
      ],
      "type": "Point"
    },
    "id": 70,
    "name": "Delhi",
    "pop_avg": 11779606.5,
    "pop_max": 15926000,
    "pop_min": 7633213,
    "rank": 3,
    "type": "Feature",
    "wiki": "Q1353",
    "zone": "Delhi"
  },
  {
    "country": "BGD",
    "geometry": {
      "coordinates": [
        90.40663360810754,
        23.725005570312817
      ],
      "type": "Point"
    },
    "id": 71,
    "name": "Dhaka",
    "pop_avg": 9899167.0,
    "pop_max": 12797394,
    "pop_min": 7000940,
    "rank": 3,
    "type": "Feature",
    "wiki": "Q1354",
    "zone": "Dhaka"
  },
  {
    "country": "PAK",
    "geometry": {
      "coordinates": [
        74.34807892054346,
        31.56191739488844
      ],
      "type": "Point"
    },
    "id": 72,
    "name": "Lahore",
    "pop_avg": 6443944.0,
    "pop_max": 6577000,
    "pop_min": 6310888,
    "rank": 3,
    "type": "Feature",
    "wiki": "Q11739",
    "zone": "Punjab"
  },
  {
    "country": "CHN",
    "geometry": {
      "coordinates": [
        113.32306427226172,
        23.14692716047989
      ],
      "type": "Point"
    },
    "id": 73,
    "name": "Guangzhou",
    "pop_avg": 5990912.5,
    "pop_max": 8829000,
    "pop_min": 3152825,
    "rank": 3,
    "type": "Feature",
    "wiki": "Q16572",
    "zone": "Guangdong"
  },
  {
    "country": "IND",
    "geometry": {
      "coordinates": [
        80.27805287890033,
        13.091933670856292
      ],
      "type": "Point"
    },
    "id": 74,
    "name": "Chennai",
    "pop_avg": 5745531.5,
    "pop_max": 7163000,
    "pop_min": 4328063,
    "rank": 3,
    "type": "Feature",
    "wiki": "Q1352",
    "zone": "Tamil Nadu"
  },
  {
    "country": "CHN",
    "geometry": {
      "coordinates": [
        114.26807118958311,
        30.581977209337822
      ],
      "type": "Point"
    },
    "id": 75,
    "name": "Wuhan",
    "pop_avg": 5713603.0,
    "pop_max": 7243000,
    "pop_min": 4184206,
    "rank": 3,
    "type": "Feature",
    "wiki": "Q11746",
    "zone": "Hubei"
  },
  {
    "country": "CHN",
    "geometry": {
      "coordinates": [
        117.19807322410043,
        39.13197212310894
      ],
      "type": "Point"
    },
    "id": 76,
    "name": "Tianjin",
    "pop_avg": 5473103.5,
    "pop_max": 7180000,
    "pop_min": 3766207,
    "rank": 3,
    "type": "Feature",
    "wiki": "Q11736",
    "zone": "Tianjin"
  },
  {
    "country": "CHN",
    "geometry": {
      "coordinates": [
        106.59303578916195,
        29.566922888044644
      ],
      "type": "Point"
    },
    "id": 77,
    "name": "Chongqing",
    "pop_avg": 5214014.0,
    "pop_max": 6461000,
    "pop_min": 3967028,
    "rank": 3,
    "type": "Feature",
    "wiki": "Q11725",
    "zone": "Chongqing"
  },
  {
    "country": "IND",
    "geometry": {
      "coordinates": [
        78.47800771287751,
        17.401928991511454
      ],
      "type": "Point"
    },
    "id": 78,
    "name": "Hyderabad",
    "pop_avg": 4986908.0,
    "pop_max": 6376000,
    "pop_min": 3597816,
    "rank": 3,
    "type": "Feature",
    "wiki": "Q1361",
    "zone": "Andhra Pradesh"
  },
  {
    "country": "IND",
    "geometry": {
      "coordinates": [
        72.57805776168215,
        23.031998775062675
      ],
      "type": "Point"
    },
    "id": 79,
    "name": "Ahmedabad",
    "pop_avg": 4547355.0,
    "pop_max": 5375000,
    "pop_min": 3719710,
    "rank": 3,
    "type": "Feature",
    "wiki": "Q1070",
    "zone": "Dadra and Nagar Haveli"
  },
  {
    "country": "CHN",
    "geometry": {
      "coordinates": [
        113.74277634138707,
        23.050834758613007
      ],
      "type": "Point"
    },
    "id": 80,
    "name": "Dongguan",
    "pop_avg": 4528000.0,
    "pop_max": 4528000,
    "pop_min": 4528000,
    "rank": 3,
    "type": "Feature",
    "wiki": "Q59218",
    "zone": "Guangdong"
  },
  {
    "country": "VNM",
    "geometry": {
      "coordinates": [
        106.69308136207889,
        10.781971309193409
      ],
      "type": "Point"
    },
    "id": 81,
    "name": "Ho Chi Minh City",
    "pop_avg": 4390665.5,
    "pop_max": 5314000,
    "pop_min": 3467331,
    "rank": 3,
    "type": "Feature",
    "wiki": "Q1854",
    "zone": "H? Ch\u00ed Minh city"
  },
  {
    "country": "CHN",
    "geometry": {
      "coordinates": [
        114.1201772298325,
        22.554316369677963
      ],
      "type": "Point"
    },
    "id": 82,
    "name": "Shenzhen",
    "pop_avg": 4291796.0,
    "pop_max": 7581000,
    "pop_min": 1002592,
    "rank": 3,
    "type": "Feature",
    "wiki": "Q15174",
    "zone": "Guangdong"
  },
  {
    "country": "BGD",
    "geometry": {
      "coordinates": [
        91.79802154756635,
        22.33193814680459
      ],
      "type": "Point"
    },
    "id": 83,
    "name": "Chittagong",
    "pop_avg": 4224611.0,
    "pop_max": 4529000,
    "pop_min": 3920222,
    "rank": 3,
    "type": "Feature",
    "wiki": "Q376749",
    "zone": "Chittagong"
  },
  {
    "country": "CHN",
    "geometry": {
      "coordinates": [
        123.44802765120869,
        41.80692512604918
      ],
      "type": "Point"
    },
    "id": 84,
    "name": "Shenyeng",
    "pop_avg": 4149596.0,
    "pop_max": 4787000,
    "pop_min": 3512192,
    "rank": 3,
    "type": "Feature",
    "wiki": "Q11720",
    "zone": "Liaoning"
  },
  {
    "country": "RUS",
    "geometry": {
      "coordinates": [
        30.314074200315076,
        59.94096036375191
      ],
      "type": "Point"
    },
    "id": 85,
    "name": "St. Petersburg",
    "pop_avg": 4023106.0,
    "pop_max": 4553000,
    "pop_min": 3493212,
    "rank": 3,
    "type": "Feature",
    "wiki": "Q656",
    "zone": "City of St. Petersburg"
  },
  {
    "country": "EGY",
    "geometry": {
      "coordinates": [
        29.948050030391755,
        31.201965205759393
      ],
      "type": "Point"
    },
    "id": 86,
    "name": "Alexandria",
    "pop_avg": 3988258.0,
    "pop_max": 4165000,
    "pop_min": 3811516,
    "rank": 3,
    "type": "Feature",
    "wiki": "Q87",
    "zone": "Al Iskandariyah"
  },
  {
    "country": "IND",
    "geometry": {
      "coordinates": [
        73.84805776168719,
        18.531963374654026
      ],
      "type": "Point"
    },
    "id": 87,
    "name": "Pune",
    "pop_avg": 3803872.0,
    "pop_max": 4672000,
    "pop_min": 2935744,
    "rank": 3,
    "type": "Feature",
    "wiki": "Q1538",
    "zone": "Maharashtra"
  },
  {
    "country": "MMR",
    "geometry": {
      "coordinates": [
        96.16473175266185,
        16.785299963188777
      ],
      "type": "Point"
    },
    "id": 88,
    "name": "Rangoon",
    "pop_avg": 3694910.0,
    "pop_max": 4088000,
    "pop_min": 3301820,
    "rank": 3,
    "type": "Feature",
    "wiki": "Q37995",
    "zone": "Yangon"
  },
  {
    "country": "CHN",
    "geometry": {
      "coordinates": [
        108.89305043760862,
        34.27697130928732
      ],
      "type": "Point"
    },
    "id": 89,
    "name": "Xian",
    "pop_avg": 3617406.0,
    "pop_max": 4009000,
    "pop_min": 3225812,
    "rank": 3,
    "type": "Feature",
    "wiki": "Q5826",
    "zone": "Shaanxi"
  },
  {
    "country": "AGO",
    "geometry": {
      "coordinates": [
        13.23248118266855,
        -8.836340255012658
      ],
      "type": "Point"
    },
    "id": 90,
    "name": "Luanda",
    "pop_avg": 3562086.0,
    "pop_max": 5172900,
    "pop_min": 1951272,
    "rank": 3,
    "type": "Feature",
    "wiki": "Q3897",
    "zone": "Luanda"
  },
  {
    "country": "TUR",
    "geometry": {
      "coordinates": [
        32.862445782356644,
        39.929184444075474
      ],
      "type": "Point"
    },
    "id": 91,
    "name": "Ankara",
    "pop_avg": 3511689.5,
    "pop_max": 3716000,
    "pop_min": 3307379,
    "rank": 3,
    "type": "Feature",
    "wiki": "Q3640",
    "zone": "Ankara"
  },
  {
    "country": "USA",
    "geometry": {
      "coordinates": [
        -75.17194183200792,
        40.001919022526465
      ],
      "type": "Point"
    },
    "id": 92,
    "name": "Philadelphia",
    "pop_avg": 3504775.0,
    "pop_max": 5492000,
    "pop_min": 1517550,
    "rank": 3,
    "type": "Feature",
    "wiki": "Q1345",
    "zone": "Pennsylvania"
  },
  {
    "country": "CIV",
    "geometry": {
      "coordinates": [
        -4.041994118507091,
        5.321942826098564
      ],
      "type": "Point"
    },
    "id": 93,
    "name": "Abidjan",
    "pop_avg": 3496197.5,
    "pop_max": 3802000,
    "pop_min": 3190395,
    "rank": 3,
    "type": "Feature",
    "wiki": "Q1515",
    "zone": "Lagunes"
  },
  {
    "country": "CHN",
    "geometry": {
      "coordinates": [
        126.64803904445057,
        45.75192980542715
      ],
      "type": "Point"
    },
    "id": 94,
    "name": "Harbin",
    "pop_avg": 3425441.5,
    "pop_max": 3621000,
    "pop_min": 3229883,
    "rank": 3,
    "type": "Feature",
    "wiki": "Q42956",
    "zone": "Heilongjiang"
  },
  {
    "country": "CHN",
    "geometry": {
      "coordinates": [
        118.77802846499208,
        32.05196500231233
      ],
      "type": "Point"
    },
    "id": 95,
    "name": "Nanjing",
    "pop_avg": 3383005.0,
    "pop_max": 3679000,
    "pop_min": 3087010,
    "rank": 3,
    "type": "Feature",
    "wiki": "Q16666",
    "zone": "Jiangsu"
  },
  {
    "country": "IND",
    "geometry": {
      "coordinates": [
        72.83809356897484,
        21.20192960187819
      ],
      "type": "Point"
    },
    "id": 96,
    "name": "Surat",
    "pop_avg": 3368252.0,
    "pop_max": 3842000,
    "pop_min": 2894504,
    "rank": 3,
    "type": "Feature",
    "wiki": "Q4629",
    "zone": "Dadra and Nagar Haveli"
  },
  {
    "country": "SDN",
    "geometry": {
      "coordinates": [
        32.532233380011576,
        15.590024084277673
      ],
      "type": "Point"
    },
    "id": 97,
    "name": "Khartoum",
    "pop_avg": 3364323.5,
    "pop_max": 4754000,
    "pop_min": 1974647,
    "rank": 3,
    "type": "Feature",
    "wiki": "Q1963",
    "zone": "Khartoum"
  },
  {
    "country": "ESP",
    "geometry": {
      "coordinates": [
        2.181424460619155,
        41.385245438547486
      ],
      "type": "Point"
    },
    "id": 98,
    "name": "Barcelona",
    "pop_avg": 3250797.5,
    "pop_max": 4920000,
    "pop_min": 1581595,
    "rank": 3,
    "type": "Feature",
    "wiki": "Q1492",
    "zone": "Catalu\u00f1a"
  },
  {
    "country": "NGA",
    "geometry": {
      "coordinates": [
        8.518091941113255,
        12.001922684523606
      ],
      "type": "Point"
    },
    "id": 99,
    "name": "Kano",
    "pop_avg": 3140000.0,
    "pop_max": 3140000,
    "pop_min": 3140000,
    "rank": 3,
    "type": "Feature",
    "wiki": "Q182984",
    "zone": "Kano"
  },
  {
    "country": "BRA",
    "geometry": {
      "coordinates": [
        -47.91799814700306,
        -15.781394372878992
      ],
      "type": "Point"
    },
    "id": 100,
    "name": "Bras\u00edlia",
    "pop_avg": 3139979.5,
    "pop_max": 3716996,
    "pop_min": 2562963,
    "rank": 3,
    "type": "Feature",
    "wiki": "Q2844",
    "zone": "Distrito Federal"
  },
  {
    "country": "BRA",
    "geometry": {
      "coordinates": [
        -38.48193328693924,
        -12.968026046044827
      ],
      "type": "Point"
    },
    "id": 101,
    "name": "Salvador",
    "pop_avg": 3081422.5,
    "pop_max": 3484000,
    "pop_min": 2678845,
    "rank": 3,
    "type": "Feature",
    "wiki": "Q36947",
    "zone": "Bahia"
  },
  {
    "country": "CAN",
    "geometry": {
      "coordinates": [
        -73.58524281670213,
        45.50194506421502
      ],
      "type": "Point"
    },
    "id": 102,
    "name": "Montr\u00e9al",
    "pop_avg": 3017278.0,
    "pop_max": 3678000,
    "pop_min": 2356556,
    "rank": 3,
    "type": "Feature",
    "wiki": "Q340",
    "zone": "Qu\u00e9bec"
  },
  {
    "country": "USA",
    "geometry": {
      "coordinates": [
        -96.84196278749818,
        32.82196968167733
      ],
      "type": "Point"
    },
    "id": 103,
    "name": "Dallas",
    "pop_avg": 3004852.0,
    "pop_max": 4798000,
    "pop_min": 1211704,
    "rank": 3,
    "type": "Feature",
    "wiki": "Q16557",
    "zone": "Texas"
  },
  {
    "country": "IND",
    "geometry": {
      "coordinates": [
        80.31805043749438,
        26.461944453787225
      ],
      "type": "Point"
    },
    "id": 104,
    "name": "Kanpur",
    "pop_avg": 2992624.5,
    "pop_max": 3162000,
    "pop_min": 2823249,
    "rank": 3,
    "type": "Feature",
    "wiki": "Q66568",
    "zone": "Uttar Pradesh"
  },
  {
    "country": "BRA",
    "geometry": {
      "coordinates": [
        -38.58192718342411,
        -3.7480720258257634
      ],
      "type": "Point"
    },
    "id": 105,
    "name": "Fortaleza",
    "pop_avg": 2958717.5,
    "pop_max": 3602319,
    "pop_min": 2315116,
    "rank": 3,
    "type": "Feature",
    "wiki": "Q43463",
    "zone": "Cear\u00e1"
  },
  {
    "country": "SAU",
    "geometry": {
      "coordinates": [
        39.2172516905851,
        21.518835322908046
      ],
      "type": "Point"
    },
    "id": 106,
    "name": "Jeddah",
    "pop_avg": 2939723.0,
    "pop_max": 3012000,
    "pop_min": 2867446,
    "rank": 3,
    "type": "Feature",
    "wiki": "Q374365",
    "zone": "Makkah"
  },
  {
    "country": "MEX",
    "geometry": {
      "coordinates": [
        -103.33198008081848,
        20.671961950508944
      ],
      "type": "Point"
    },
    "id": 107,
    "name": "Guadalajara",
    "pop_avg": 2919294.5,
    "pop_max": 4198000,
    "pop_min": 1640589,
    "rank": 3,
    "type": "Feature",
    "wiki": "Q9022",
    "zone": "Jalisco"
  },
  {
    "country": "VNM",
    "geometry": {
      "coordinates": [
        105.8480683412422,
        21.035273107737055
      ],
      "type": "Point"
    },
    "id": 108,
    "name": "Hanoi",
    "pop_avg": 2904635.0,
    "pop_max": 4378000,
    "pop_min": 1431270,
    "rank": 3,
    "type": "Feature",
    "wiki": "Q1858",
    "zone": "Th\u00e1i Nguy\u00ean"
  },
  {
    "country": "PRK",
    "geometry": {
      "coordinates": [
        125.75274485499392,
        39.02138455800434
      ],
      "type": "Point"
    },
    "id": 109,
    "name": "Pyongyang",
    "pop_avg": 2899398.5,
    "pop_max": 3300000,
    "pop_min": 2498797,
    "rank": 3,
    "type": "Feature",
    "wiki": "Q18808",
    "zone": "P'yongyang"
  },
  {
    "country": "CHN",
    "geometry": {
      "coordinates": [
        125.33804148585148,
        43.86695442293251
      ],
      "type": "Point"
    },
    "id": 110,
    "name": "Changchun",
    "pop_avg": 2860210.5,
    "pop_max": 3183000,
    "pop_min": 2537421,
    "rank": 3,
    "type": "Feature",
    "wiki": "Q92161",
    "zone": "Jilin"
  },
  {
    "country": "CHN",
    "geometry": {
      "coordinates": [
        112.54311187968051,
        37.876958288468416
      ],
      "type": "Point"
    },
    "id": 111,
    "name": "Taiyuan",
    "pop_avg": 2817737.5,
    "pop_max": 2913000,
    "pop_min": 2722475,
    "rank": 3,
    "type": "Feature",
    "wiki": "Q72778",
    "zone": "Shanxi"
  },
  {
    "country": "IND",
    "geometry": {
      "coordinates": [
        75.8080414856534,
        26.92307909734376
      ],
      "type": "Point"
    },
    "id": 112,
    "name": "Jaipur",
    "pop_avg": 2814379.0,
    "pop_max": 2917000,
    "pop_min": 2711758,
    "rank": 3,
    "type": "Feature",
    "wiki": "Q66485",
    "zone": "Rajasthan"
  },
  {
    "country": "TZA",
    "geometry": {
      "coordinates": [
        39.26639597769457,
        -6.798066736124383
      ],
      "type": "Point"
    },
    "id": 113,
    "name": "Dar es Salaam",
    "pop_avg": 2814326.0,
    "pop_max": 2930000,
    "pop_min": 2698652,
    "rank": 3,
    "type": "Feature",
    "wiki": "Q1960",
    "zone": "Dar-Es-Salaam"
  },
  {
    "country": "ZAF",
    "geometry": {
      "coordinates": [
        30.97806467883339,
        -29.863067143117632
      ],
      "type": "Point"
    },
    "id": 114,
    "name": "Durban",
    "pop_avg": 2729000.0,
    "pop_max": 2729000,
    "pop_min": 2729000,
    "rank": 3,
    "type": "Feature",
    "wiki": "Q5468",
    "zone": "KwaZulu-Natal"
  },
  {
    "country": "DZA",
    "geometry": {
      "coordinates": [
        3.048606670909237,
        36.765010656628135
      ],
      "type": "Point"
    },
    "id": 115,
    "name": "Algiers",
    "pop_avg": 2665831.5,
    "pop_max": 3354000,
    "pop_min": 1977663,
    "rank": 3,
    "type": "Feature",
    "wiki": "Q3561",
    "zone": "Alger"
  },
  {
    "country": "COL",
    "geometry": {
      "coordinates": [
        -75.57695587009556,
        6.276949133068513
      ],
      "type": "Point"
    },
    "id": 116,
    "name": "Medell\u00edn",
    "pop_avg": 2648489.5,
    "pop_max": 3297000,
    "pop_min": 1999979,
    "rank": 3,
    "type": "Feature",
    "wiki": "Q48278",
    "zone": "Antioquia"
  },
  {
    "country": "BRA",
    "geometry": {
      "coordinates": [
        -51.20195790450316,
        -30.048068770722466
      ],
      "type": "Point"
    },
    "id": 117,
    "name": "Porto Alegre",
    "pop_avg": 2644870.5,
    "pop_max": 3917000,
    "pop_min": 1372741,
    "rank": 3,
    "type": "Feature",
    "wiki": "Q40269",
    "zone": "Rio Grande do Sul"
  },
  {
    "country": "IDN",
    "geometry": {
      "coordinates": [
        112.7488874330669,
        -7.247289962037485
      ],
      "type": "Point"
    },
    "id": 118,
    "name": "Surabaya",
    "pop_avg": 2609829.0,
    "pop_max": 2845000,
    "pop_min": 2374658,
    "rank": 3,
    "type": "Feature",
    "wiki": "Q11462",
    "zone": "Jawa Timur"
  },
  {
    "country": "BRA",
    "geometry": {
      "coordinates": [
        -34.91755136960728,
        -8.073699467249241
      ],
      "type": "Point"
    },
    "id": 119,
    "name": "Recife",
    "pop_avg": 2564549.0,
    "pop_max": 3651000,
    "pop_min": 1478098,
    "rank": 3,
    "type": "Feature",
    "wiki": "Q48344",
    "zone": "Pernambuco"
  },
  {
    "country": "USA",
    "geometry": {
      "coordinates": [
        -71.07195953218684,
        42.33190600170229
      ],
      "type": "Point"
    },
    "id": 120,
    "name": "Boston",
    "pop_avg": 2528070.5,
    "pop_max": 4467000,
    "pop_min": 589141,
    "rank": 3,
    "type": "Feature",
    "wiki": "Q100",
    "zone": "Massachusetts"
  },
  {
    "country": "USA",
    "geometry": {
      "coordinates": [
        -83.0820016464927,
        42.33190600170229
      ],
      "type": "Point"
    },
    "id": 121,
    "name": "Detroit",
    "pop_avg": 2526135.0,
    "pop_max": 4101000,
    "pop_min": 951270,
    "rank": 3,
    "type": "Feature",
    "wiki": "Q12439",
    "zone": "Michigan"
  },
  {
    "country": "SYR",
    "geometry": {
      "coordinates": [
        36.29805003041707,
        33.50197985420613
      ],
      "type": "Point"
    },
    "id": 122,
    "name": "Damascus",
    "pop_avg": 2466000.0,
    "pop_max": 2466000,
    "pop_min": 2466000,
    "rank": 3,
    "type": "Feature",
    "wiki": "Q3766",
    "zone": "Damascus"
  },
  {
    "country": "CHN",
    "geometry": {
      "coordinates": [
        120.16807281721094,
        30.251919836289517
      ],
      "type": "Point"
    },
    "id": 123,
    "name": "Hangzhou",
    "pop_avg": 2442564.5,
    "pop_max": 3007000,
    "pop_min": 1878129,
    "rank": 3,
    "type": "Feature",
    "wiki": "Q4970",
    "zone": "Zhejiang"
  },
  {
    "country": "USA",
    "geometry": {
      "coordinates": [
        -112.07193755969467,
        33.5419257363676
      ],
      "type": "Point"
    },
    "id": 124,
    "name": "Phoenix",
    "pop_avg": 2436022.5,
    "pop_max": 3551000,
    "pop_min": 1321045,
    "rank": 3,
    "type": "Feature",
    "wiki": "Q16556",
    "zone": "Arizona"
  },
  {
    "country": "CHN",
    "geometry": {
      "coordinates": [
        116.99307281719848,
        36.67692817778641
      ],
      "type": "Point"
    },
    "id": 125,
    "name": "Jinan",
    "pop_avg": 2433633.0,
    "pop_max": 2798000,
    "pop_min": 2069266,
    "rank": 3,
    "type": "Feature",
    "wiki": "Q170247",
    "zone": "Shandong"
  },
  {
    "country": "CHN",
    "geometry": {
      "coordinates": [
        106.7180927553083,
        26.581988806001448
      ],
      "type": "Point"
    },
    "id": 126,
    "name": "Guiyang",
    "pop_avg": 2416816.5,
    "pop_max": 3662000,
    "pop_min": 1171633,
    "rank": 3,
    "type": "Feature",
    "wiki": "Q192271",
    "zone": "Guizhou"
  },
  {
    "country": "IND",
    "geometry": {
      "coordinates": [
        79.0880479960831,
        21.171905594716634
      ],
      "type": "Point"
    },
    "id": 127,
    "name": "Nagpur",
    "pop_avg": 2341009.0,
    "pop_max": 2454000,
    "pop_min": 2228018,
    "rank": 3,
    "type": "Feature",
    "wiki": "Q1513",
    "zone": "Maharashtra"
  },
  {
    "country": "CHN",
    "geometry": {
      "coordinates": [
        112.96804718241651,
        28.201915767270805
      ],
      "type": "Point"
    },
    "id": 128,
    "name": "Changsha",
    "pop_avg": 2338969.0,
    "pop_max": 2604000,
    "pop_min": 2073938,
    "rank": 3,
    "type": "Feature",
    "wiki": "Q174091",
    "zone": "Hunan"
  },
  {
    "country": "CHN",
    "geometry": {
      "coordinates": [
        113.66314687317458,
        34.7569420124143
      ],
      "type": "Point"
    },
    "id": 129,
    "name": "Zhengzhou",
    "pop_avg": 2325062.5,
    "pop_max": 2636000,
    "pop_min": 2014125,
    "rank": 3,
    "type": "Feature",
    "wiki": "Q30340",
    "zone": "Henan"
  },
  {
    "country": "IRN",
    "geometry": {
      "coordinates": [
        59.568050844312324,
        36.27196581613117
      ],
      "type": "Point"
    },
    "id": 130,
    "name": "Mashhad",
    "pop_avg": 2318126.5,
    "pop_max": 2469000,
    "pop_min": 2167253,
    "rank": 3,
    "type": "Feature",
    "wiki": "Q121157",
    "zone": "Razavi Khorasan"
  },
  {
    "country": "BRA",
    "geometry": {
      "coordinates": [
        -49.32194345950859,
        -25.418067143099847
      ],
      "type": "Point"
    },
    "id": 131,
    "name": "Curitiba",
    "pop_avg": 2291430.0,
    "pop_max": 3084000,
    "pop_min": 1498860,
    "rank": 3,
    "type": "Feature",
    "wiki": "Q4361",
    "zone": "Paran\u00e1"
  },
  {
    "country": "CHN",
    "geometry": {
      "coordinates": [
        103.79005442521844,
        36.05797371001057
      ],
      "type": "Point"
    },
    "id": 132,
    "name": "Lanzhou",
    "pop_avg": 2282609.0,
    "pop_max": 2561000,
    "pop_min": 2004218,
    "rank": 3,
    "type": "Feature",
    "wiki": "Q183584",
    "zone": "Gansu"
  },
  {
    "country": "ECU",
    "geometry": {
      "coordinates": [
        -79.92198781184453,
        -2.2180878949601492
      ],
      "type": "Point"
    },
    "id": 133,
    "name": "Guayaquil",
    "pop_avg": 2233014.5,
    "pop_max": 2514000,
    "pop_min": 1952029,
    "rank": 3,
    "type": "Feature",
    "wiki": "Q43509",
    "zone": "Guayas"
  },
  {
    "country": "COL",
    "geometry": {
      "coordinates": [
        -76.5019123316876,
        3.401904984294049
      ],
      "type": "Point"
    },
    "id": 134,
    "name": "Cali",
    "pop_avg": 2216418.0,
    "pop_max": 2254000,
    "pop_min": 2178836,
    "rank": 3,
    "type": "Feature",
    "wiki": "Q51103",
    "zone": "Valle del Cauca"
  },
  {
    "country": "JPN",
    "geometry": {
      "coordinates": [
        141.33809845206156,
        43.07692512605422
      ],
      "type": "Point"
    },
    "id": 135,
    "name": "Sapporo",
    "pop_avg": 2202893.0,
    "pop_max": 2544000,
    "pop_min": 1861786,
    "rank": 3,
    "type": "Feature",
    "wiki": "Q37951",
    "zone": "Hokkaido"
  },
  {
    "country": "SYR",
    "geometry": {
      "coordinates": [
        37.16807444448318,
        36.231916581105224
      ],
      "type": "Point"
    },
    "id": 136,
    "name": "Aleppo",
    "pop_avg": 2170132.0,
    "pop_max": 2738000,
    "pop_min": 1602264,
    "rank": 3,
    "type": "Feature",
    "wiki": "Q41183",
    "zone": "Aleppo (Halab)"
  },
  {
    "country": "ITA",
    "geometry": {
      "coordinates": [
        9.203063051142124,
        45.47192105705352
      ],
      "type": "Point"
    },
    "id": 137,
    "name": "Milan",
    "pop_avg": 2125830.5,
    "pop_max": 2945000,
    "pop_min": 1306661,
    "rank": 3,
    "type": "Feature",
    "wiki": "Q490",
    "zone": "Lombardia"
  },
  {
    "country": "CHN",
    "geometry": {
      "coordinates": [
        115.8780504376366,
        28.681938146830078
      ],
      "type": "Point"
    },
    "id": 138,
    "name": "Nanchang",
    "pop_avg": 2110675.5,
    "pop_max": 2350000,
    "pop_min": 1871351,
    "rank": 3,
    "type": "Feature",
    "wiki": "Q171943",
    "zone": "Jiangxi"
  },
  {
    "country": "CUB",
    "geometry": {
      "coordinates": [
        -82.3661280299533,
        23.1339046995422
      ],
      "type": "Point"
    },
    "id": 139,
    "name": "Havana",
    "pop_avg": 2082458.5,
    "pop_max": 2174000,
    "pop_min": 1990917,
    "rank": 3,
    "type": "Feature",
    "wiki": "Q1563",
    "zone": "Ciudad de la Habana"
  },
  {
    "country": "IDN",
    "geometry": {
      "coordinates": [
        107.56806671364507,
        -6.948083419067757
      ],
      "type": "Point"
    },
    "id": 140,
    "name": "Bandung",
    "pop_avg": 2046859.5,
    "pop_max": 2394000,
    "pop_min": 1699719,
    "rank": 3,
    "type": "Feature",
    "wiki": "Q10389",
    "zone": "Jawa Barat"
  },
  {
    "country": "GHA",
    "geometry": {
      "coordinates": [
        -0.21866159896069348,
        5.551980464445933
      ],
      "type": "Point"
    },
    "id": 141,
    "name": "Accra",
    "pop_avg": 2042132.0,
    "pop_max": 2121000,
    "pop_min": 1963264,
    "rank": 3,
    "type": "Feature",
    "wiki": "Q3761",
    "zone": "Greater Accra"
  },
  {
    "country": "CHN",
    "geometry": {
      "coordinates": [
        102.67802927872964,
        25.071925939784478
      ],
      "type": "Point"
    },
    "id": 142,
    "name": "Kunming",
    "pop_avg": 1977337.0,
    "pop_max": 2931000,
    "pop_min": 1023674,
    "rank": 3,
    "type": "Feature",
    "wiki": "Q182852",
    "zone": "Yunnan"
  },
  {
    "country": "USA",
    "geometry": {
      "coordinates": [
        -117.18193572866028,
        32.82196968167733
      ],
      "type": "Point"
    },
    "id": 143,
    "name": "San Diego",
    "pop_avg": 1938570.5,
    "pop_max": 2916000,
    "pop_min": 961141,
    "rank": 3,
    "type": "Feature",
    "wiki": "Q16552",
    "zone": "California"
  },
  {
    "country": "IDN",
    "geometry": {
      "coordinates": [
        98.64809438288012,
        3.581919836182749
      ],
      "type": "Point"
    },
    "id": 144,
    "name": "Medan",
    "pop_avg": 1932985.5,
    "pop_max": 2115000,
    "pop_min": 1750971,
    "rank": 3,
    "type": "Feature",
    "wiki": "Q5972",
    "zone": "Sumatera Utara"
  },
  {
    "country": "YEM",
    "geometry": {
      "coordinates": [
        44.20464752393843,
        15.356679154263645
      ],
      "type": "Point"
    },
    "id": 145,
    "name": "Sanaa",
    "pop_avg": 1921926.5,
    "pop_max": 2008000,
    "pop_min": 1835853,
    "rank": 3,
    "type": "Feature",
    "wiki": "Q2471",
    "zone": "Amanat Al Asimah"
  },
  {
    "country": "CHN",
    "geometry": {
      "coordinates": [
        119.29810007957747,
        26.081941808929002
      ],
      "type": "Point"
    },
    "id": 146,
    "name": "Fuzhou",
    "pop_avg": 1892860.0,
    "pop_max": 2606000,
    "pop_min": 1179720,
    "rank": 3,
    "type": "Feature",
    "wiki": "Q68481",
    "zone": "Fujian"
  },
  {
    "country": "IND",
    "geometry": {
      "coordinates": [
        85.12809275522181,
        25.626904984382918
      ],
      "type": "Point"
    },
    "id": 147,
    "name": "Patna",
    "pop_avg": 1878960.0,
    "pop_max": 2158000,
    "pop_min": 1599920,
    "rank": 3,
    "type": "Feature",
    "wiki": "Q80484",
    "zone": "Bihar"
  },
  {
    "country": "CHN",
    "geometry": {
      "coordinates": [
        118.04804718243702,
        36.80193346750053
      ],
      "type": "Point"
    },
    "id": 148,
    "name": "Zibo",
    "pop_avg": 1865385.0,
    "pop_max": 3061000,
    "pop_min": 669770,
    "rank": 3,
    "type": "Feature",
    "wiki": "Q198370",
    "zone": "Shandong"
  },
  {
    "country": "ROU",
    "geometry": {
      "coordinates": [
        26.0980007953504,
        44.43531766349457
      ],
      "type": "Point"
    },
    "id": 149,
    "name": "Bucharest",
    "pop_avg": 1842097.0,
    "pop_max": 1942000,
    "pop_min": 1742194,
    "rank": 3,
    "type": "Feature",
    "wiki": "Q19660",
    "zone": "Bucharest"
  },
  {
    "country": "USA",
    "geometry": {
      "coordinates": [
        -122.34193084586849,
        47.57194791253073
      ],
      "type": "Point"
    },
    "id": 150,
    "name": "Seattle",
    "pop_avg": 1821684.5,
    "pop_max": 3074000,
    "pop_min": 569369,
    "rank": 3,
    "type": "Feature",
    "wiki": "Q5083",
    "zone": "Washington"
  },
  {
    "country": "MEX",
    "geometry": {
      "coordinates": [
        -98.20198313255577,
        19.051905798158714
      ],
      "type": "Point"
    },
    "id": 151,
    "name": "Puebla",
    "pop_avg": 1793549.5,
    "pop_max": 2195000,
    "pop_min": 1392099,
    "rank": 3,
    "type": "Feature",
    "wiki": "Q125293",
    "zone": "Puebla"
  },
  {
    "country": "BRA",
    "geometry": {
      "coordinates": [
        -48.48196889082038,
        -1.4480573773789729
      ],
      "type": "Point"
    },
    "id": 152,
    "name": "Bel\u00e9m",
    "pop_avg": 1787368.5,
    "pop_max": 2167000,
    "pop_min": 1407737,
    "rank": 3,
    "type": "Feature",
    "wiki": "Q47593",
    "zone": "Par\u00e1"
  },
  {
    "country": "DEU",
    "geometry": {
      "coordinates": [
        8.675015420169643,
        50.09997682606331
      ],
      "type": "Point"
    },
    "id": 153,
    "name": "Frankfurt",
    "pop_avg": 1787332.0,
    "pop_max": 2895000,
    "pop_min": 679664,
    "rank": 3,
    "type": "Feature",
    "wiki": "Q1794",
    "zone": "Hessen"
  },
  {
    "country": "VEN",
    "geometry": {
      "coordinates": [
        -71.66192352144697,
        10.731922684518565
      ],
      "type": "Point"
    },
    "id": 154,
    "name": "Maracaibo",
    "pop_avg": 1764650.0,
    "pop_max": 2072000,
    "pop_min": 1457300,
    "rank": 3,
    "type": "Feature",
    "wiki": "Q171632",
    "zone": "Zulia"
  },
  {
    "country": "DEU",
    "geometry": {
      "coordinates": [
        9.998053285520314,
        53.55197049556244
      ],
      "type": "Point"
    },
    "id": 155,
    "name": "Hamburg",
    "pop_avg": 1748058.5,
    "pop_max": 1757000,
    "pop_min": 1739117,
    "rank": 3,
    "type": "Feature",
    "wiki": "Q1055",
    "zone": "Hamburg"
  },
  {
    "country": "ISR",
    "geometry": {
      "coordinates": [
        34.76806589955174,
        32.08193733304165
      ],
      "type": "Point"
    },
    "id": 156,
    "name": "Tel Aviv-Yafo",
    "pop_avg": 1745179.0,
    "pop_max": 3112000,
    "pop_min": 378358,
    "rank": 3,
    "type": "Feature",
    "wiki": "Q33935",
    "zone": "Tel Aviv"
  },
  {
    "country": "POL",
    "geometry": {
      "coordinates": [
        20.998053692465305,
        52.25194648839556
      ],
      "type": "Point"
    },
    "id": 157,
    "name": "Warsaw",
    "pop_avg": 1704569.5,
    "pop_max": 1707000,
    "pop_min": 1702139,
    "rank": 3,
    "type": "Feature",
    "wiki": "Q270",
    "zone": "Masovian"
  },
  {
    "country": "HUN",
    "geometry": {
      "coordinates": [
        19.081374818759684,
        47.50195218499135
      ],
      "type": "Point"
    },
    "id": 158,
    "name": "Budapest",
    "pop_avg": 1679000.0,
    "pop_max": 1679000,
    "pop_min": 1679000,
    "rank": 3,
    "type": "Feature",
    "wiki": "Q1781",
    "zone": "Budapest"
  },
  {
    "country": "PRT",
    "geometry": {
      "coordinates": [
        -9.14681216410213,
        38.72466873648784
      ],
      "type": "Point"
    },
    "id": 159,
    "name": "Lisbon",
    "pop_avg": 1664901.0,
    "pop_max": 2812000,
    "pop_min": 517802,
    "rank": 3,
    "type": "Feature",
    "wiki": "Q597",
    "zone": "Lisboa"
  },
  {
    "country": "ITA",
    "geometry": {
      "coordinates": [
        14.243065492568519,
        40.841971105863195
      ],
      "type": "Point"
    },
    "id": 160,
    "name": "Naples",
    "pop_avg": 1619486.0,
    "pop_max": 2250000,
    "pop_min": 988972,
    "rank": 3,
    "type": "Feature",
    "wiki": "Q2634",
    "zone": "Campania"
  },
  {
    "country": "BRA",
    "geometry": {
      "coordinates": [
        -49.301970518427936,
        -16.718081384601533
      ],
      "type": "Point"
    },
    "id": 161,
    "name": "Goi\u00e2nia",
    "pop_avg": 1596597.5,
    "pop_max": 2022000,
    "pop_min": 1171195,
    "rank": 3,
    "type": "Feature",
    "wiki": "Q83189",
    "zone": "Goi\u00e1s"
  },
  {
    "country": "JPN",
    "geometry": {
      "coordinates": [
        132.44096710436975,
        34.3897809609806
      ],
      "type": "Point"
    },
    "id": 162,
    "name": "Hiroshima",
    "pop_avg": 1594420.5,
    "pop_max": 2045000,
    "pop_min": 1143841,
    "rank": 3,
    "type": "Feature",
    "wiki": "Q34664",
    "zone": "Hiroshima"
  },
  {
    "country": "USA",
    "geometry": {
      "coordinates": [
        -93.25373219666352,
        44.98192512606187
      ],
      "type": "Point"
    },
    "id": 163,
    "name": "Minneapolis",
    "pop_avg": 1491886.5,
    "pop_max": 2616000,
    "pop_min": 367773,
    "rank": 3,
    "type": "Feature",
    "wiki": "Q36091",
    "zone": "Minnesota"
  },
  {
    "country": "CHN",
    "geometry": {
      "coordinates": [
        108.31809845192925,
        22.821934077796072
      ],
      "type": "Point"
    },
    "id": 164,
    "name": "Nanning",
    "pop_avg": 1485394.0,
    "pop_max": 2167000,
    "pop_min": 803788,
    "rank": 3,
    "type": "Feature",
    "wiki": "Q179608",
    "zone": "Guangxi"
  },
  {
    "country": "MYS",
    "geometry": {
      "coordinates": [
        101.69803741674644,
        3.168611730712371
      ],
      "type": "Point"
    },
    "id": 165,
    "name": "Kuala Lumpur",
    "pop_avg": 1448000.0,
    "pop_max": 1448000,
    "pop_min": 1448000,
    "rank": 3,
    "type": "Feature",
    "wiki": "Q1865",
    "zone": "Selangor"
  },
  {
    "country": "BEL",
    "geometry": {
      "coordinates": [
        4.33137074969045,
        50.83526293533032
      ],
      "type": "Point"
    },
    "id": 166,
    "name": "Brussels",
    "pop_avg": 1381011.0,
    "pop_max": 1743000,
    "pop_min": 1019022,
    "rank": 3,
    "type": "Feature",
    "wiki": "Q239",
    "zone": "Brussels"
  },
  {
    "country": "SAU",
    "geometry": {
      "coordinates": [
        39.818093568842755,
        21.43196724022539
      ],
      "type": "Point"
    },
    "id": 167,
    "name": "Makkah",
    "pop_avg": 1354312.0,
    "pop_max": 1385000,
    "pop_min": 1323624,
    "rank": 3,
    "type": "Feature",
    "wiki": "Q5806",
    "zone": "Makkah"
  },
  {
    "country": "USA",
    "geometry": {
      "coordinates": [
        -82.46056670996677,
        27.94893379298594
      ],
      "type": "Point"
    },
    "id": 168,
    "name": "Tampa",
    "pop_avg": 1319232.5,
    "pop_max": 2314000,
    "pop_min": 324465,
    "rank": 3,
    "type": "Feature",
    "wiki": "Q49255",
    "zone": "Florida"
  },
  {
    "country": "DEU",
    "geometry": {
      "coordinates": [
        11.573047588912061,
        48.131887894629244
      ],
      "type": "Point"
    },
    "id": 169,
    "name": "Munich",
    "pop_avg": 1267695.5,
    "pop_max": 1275000,
    "pop_min": 1260391,
    "rank": 3,
    "type": "Feature",
    "wiki": "Q1726",
    "zone": "Bayern"
  },
  {
    "country": "USA",
    "geometry": {
      "coordinates": [
        -90.2419263698286,
        38.636963578185146
      ],
      "type": "Point"
    },
    "id": 170,
    "name": "St. Louis",
    "pop_avg": 1259958.0,
    "pop_max": 2199000,
    "pop_min": 320916,
    "rank": 3,
    "type": "Feature",
    "wiki": "Q38022",
    "zone": "Missouri"
  },
  {
    "country": "CHN",
    "geometry": {
      "coordinates": [
        109.82007395649259,
        40.654153112698395
      ],
      "type": "Point"
    },
    "id": 171,
    "name": "Baotou",
    "pop_avg": 1229664.5,
    "pop_max": 2036000,
    "pop_min": 423329,
    "rank": 3,
    "type": "Feature",
    "wiki": "Q569907",
    "zone": "Nei Mongol"
  },
  {
    "country": "LBY",
    "geometry": {
      "coordinates": [
        13.180011758078194,
        32.89250001935369
      ],
      "type": "Point"
    },
    "id": 172,
    "name": "Tripoli",
    "pop_avg": 1209199.0,
    "pop_max": 2189000,
    "pop_min": 229398,
    "rank": 3,
    "type": "Feature",
    "wiki": "Q3579",
    "zone": "Tajura' wa an Nawahi al Arba"
  },
  {
    "country": "AUS",
    "geometry": {
      "coordinates": [
        115.83805287904272,
        -31.95306877073017
      ],
      "type": "Point"
    },
    "id": 173,
    "name": "Perth",
    "pop_avg": 1206108.0,
    "pop_max": 1532000,
    "pop_min": 880216,
    "rank": 3,
    "type": "Feature",
    "wiki": "Q3183",
    "zone": "Western Australia"
  },
  {
    "country": "DNK",
    "geometry": {
      "coordinates": [
        12.561539888703294,
        55.68051004902594
      ],
      "type": "Point"
    },
    "id": 174,
    "name": "K\u00f8benhavn",
    "pop_avg": 1085000.0,
    "pop_max": 1085000,
    "pop_min": 1085000,
    "rank": 3,
    "type": "Feature",
    "wiki": "Q1748",
    "zone": "Hovedstaden"
  },
  {
    "country": "DOM",
    "geometry": {
      "coordinates": [
        -69.90203094331503,
        18.472018713195382
      ],
      "type": "Point"
    },
    "id": 175,
    "name": "Santo Domingo",
    "pop_avg": 1078436.5,
    "pop_max": 2154000,
    "pop_min": 2873,
    "rank": 3,
    "type": "Feature",
    "wiki": "Q34820",
    "zone": "Distrito Nacional"
  },
  {
    "country": "KWT",
    "geometry": {
      "coordinates": [
        47.97635528762527,
        29.371663488629565
      ],
      "type": "Point"
    },
    "id": 176,
    "name": "Kuwait",
    "pop_avg": 1061532.0,
    "pop_max": 2063000,
    "pop_min": 60064,
    "rank": 3,
    "type": "Feature",
    "wiki": "Q35178",
    "zone": "Al Kuwayt"
  },
  {
    "country": "IRL",
    "geometry": {
      "coordinates": [
        -6.250851540391068,
        53.335006994584944
      ],
      "type": "Point"
    },
    "id": 177,
    "name": "Dublin",
    "pop_avg": 1013988.0,
    "pop_max": 1059000,
    "pop_min": 968976,
    "rank": 3,
    "type": "Feature",
    "wiki": "Q1761",
    "zone": "Dublin"
  },
  {
    "country": "LBR",
    "geometry": {
      "coordinates": [
        -10.799660436775923,
        6.314581647160139
      ],
      "type": "Point"
    },
    "id": 178,
    "name": "Monrovia",
    "pop_avg": 913331.0,
    "pop_max": 1041000,
    "pop_min": 785662,
    "rank": 3,
    "type": "Feature",
    "wiki": "Q3748",
    "zone": "Montserrado"
  },
  {
    "country": "CAN",
    "geometry": {
      "coordinates": [
        -113.50192779407519,
        53.55197049556244
      ],
      "type": "Point"
    },
    "id": 179,
    "name": "Edmonton",
    "pop_avg": 885195.5,
    "pop_max": 1058000,
    "pop_min": 712391,
    "rank": 3,
    "type": "Feature",
    "wiki": "Q2096",
    "zone": "Alberta"
  },
  {
    "country": "FIN",
    "geometry": {
      "coordinates": [
        24.93218048284558,
        60.17750923256807
      ],
      "type": "Point"
    },
    "id": 180,
    "name": "Helsinki",
    "pop_avg": 836728.5,
    "pop_max": 1115000,
    "pop_min": 558457,
    "rank": 3,
    "type": "Feature",
    "wiki": "Q1757",
    "zone": "Southern Finland"
  },
  {
    "country": "CHE",
    "geometry": {
      "coordinates": [
        8.548064271842577,
        47.381933670993476
      ],
      "type": "Point"
    },
    "id": 181,
    "name": "Z\u00fcrich",
    "pop_avg": 724865.0,
    "pop_max": 1108000,
    "pop_min": 341730,
    "rank": 3,
    "type": "Feature",
    "wiki": "Q72",
    "zone": "Z\u00fcrich"
  },
  {
    "country": "NOR",
    "geometry": {
      "coordinates": [
        10.748033347372314,
        59.91863614500187
      ],
      "type": "Point"
    },
    "id": 182,
    "name": "Oslo",
    "pop_avg": 707500.0,
    "pop_max": 835000,
    "pop_min": 580000,
    "rank": 3,
    "type": "Feature",
    "wiki": "Q585",
    "zone": "Oslo"
  },
  {
    "country": "CZE",
    "geometry": {
      "coordinates": [
        14.464033917048539,
        50.08528287347832
      ],
      "type": "Point"
    },
    "id": 183,
    "name": "Prague",
    "pop_avg": 582043.5,
    "pop_max": 1162000,
    "pop_min": 2087,
    "rank": 3,
    "type": "Feature",
    "wiki": "Q1085",
    "zone": "Prague"
  },
  {
    "country": "USA",
    "geometry": {
      "coordinates": [
        -157.8599437447736,
        21.308822302073963
      ],
      "type": "Point"
    },
    "id": 184,
    "name": "Honolulu",
    "pop_avg": 578828.5,
    "pop_max": 786000,
    "pop_min": 371657,
    "rank": 3,
    "type": "Feature",
    "wiki": "Q18094",
    "zone": "Hawaii"
  },
  {
    "country": "USA",
    "geometry": {
      "coordinates": [
        -90.04191273864285,
        29.99694831936148
      ],
      "type": "Point"
    },
    "id": 185,
    "name": "New Orleans",
    "pop_avg": 527428.5,
    "pop_max": 785000,
    "pop_min": 269857,
    "rank": 3,
    "type": "Feature",
    "wiki": "Q34404",
    "zone": "Louisiana"
  },
  {
    "country": "USA",
    "geometry": {
      "coordinates": [
        -149.90021488645436,
        61.219969908790006
      ],
      "type": "Point"
    },
    "id": 186,
    "name": "Anchorage",
    "pop_avg": 252068.0,
    "pop_max": 260283,
    "pop_min": 243853,
    "rank": 3,
    "type": "Feature",
    "wiki": "Q39450",
    "zone": "Alaska"
  },
  {
    "country": "CHN",
    "geometry": {
      "coordinates": [
        120.266601928,
        22.6333071075
      ],
      "type": "Point"
    },
    "id": 187,
    "name": "Kaohsiung",
    "pop_avg": 2144391.5,
    "pop_max": 2769072,
    "pop_min": 1519711,
    "rank": 4,
    "type": "Feature",
    "wiki": "Q181557",
    "zone": "Kaohsiung City"
  },
  {
    "country": "AZE",
    "geometry": {
      "coordinates": [
        49.860271303257775,
        40.39721789134302
      ],
      "type": "Point"
    },
    "id": 188,
    "name": "Baku",
    "pop_avg": 2007150.0,
    "pop_max": 2122300,
    "pop_min": 1892000,
    "rank": 4,
    "type": "Feature",
    "wiki": "Q9248",
    "zone": "Baki"
  },
  {
    "country": "BOL",
    "geometry": {
      "coordinates": [
        -63.227942198171036,
        -17.751971765465044
      ],
      "type": "Point"
    },
    "id": 189,
    "name": "Santa Cruz",
    "pop_avg": 1859530.5,
    "pop_max": 2102998,
    "pop_min": 1616063,
    "rank": 4,
    "type": "Feature",
    "wiki": "Q170688",
    "zone": "Santa Cruz"
  },
  {
    "country": "LBN",
    "geometry": {
      "coordinates": [
        35.507762351377664,
        33.8739209756269
      ],
      "type": "Point"
    },
    "id": 190,
    "name": "Beirut",
    "pop_avg": 1779062.5,
    "pop_max": 1846000,
    "pop_min": 1712125,
    "rank": 4,
    "type": "Feature",
    "wiki": "Q3820",
    "zone": "Beirut"
  },
  {
    "country": "BLR",
    "geometry": {
      "coordinates": [
        27.56468129665825,
        53.901923295043105
      ],
      "type": "Point"
    },
    "id": 191,
    "name": "Minsk",
    "pop_avg": 1691069.0,
    "pop_max": 1805000,
    "pop_min": 1577138,
    "rank": 4,
    "type": "Feature",
    "wiki": "Q2280",
    "zone": "Minsk"
  },
  {
    "country": "MAR",
    "geometry": {
      "coordinates": [
        -6.83640815612614,
        34.02530731107282
      ],
      "type": "Point"
    },
    "id": 192,
    "name": "Rabat",
    "pop_avg": 1680376.5,
    "pop_max": 1705000,
    "pop_min": 1655753,
    "rank": 4,
    "type": "Feature",
    "wiki": "Q3551",
    "zone": "Rabat - Sal\u00e9 - Zemmour - Zaer"
  },
  {
    "country": "IND",
    "geometry": {
      "coordinates": [
        77.40804718227434,
        23.251933670896733
      ],
      "type": "Point"
    },
    "id": 193,
    "name": "Bhopal",
    "pop_avg": 1663457.0,
    "pop_max": 1727000,
    "pop_min": 1599914,
    "rank": 4,
    "type": "Feature",
    "wiki": "Q80989",
    "zone": "Madhya Pradesh"
  },
  {
    "country": "BRA",
    "geometry": {
      "coordinates": [
        -60.001963397702525,
        -3.098085860458582
      ],
      "type": "Point"
    },
    "id": 194,
    "name": "Manaus",
    "pop_avg": 1636622.0,
    "pop_max": 1753000,
    "pop_min": 1520244,
    "rank": 4,
    "type": "Feature",
    "wiki": "Q40236",
    "zone": "Amazonas"
  },
  {
    "country": "HTI",
    "geometry": {
      "coordinates": [
        -72.33798044690553,
        18.54297045473237
      ],
      "type": "Point"
    },
    "id": 195,
    "name": "Port-au-Prince",
    "pop_avg": 1616371.0,
    "pop_max": 1998000,
    "pop_min": 1234742,
    "rank": 4,
    "type": "Feature",
    "wiki": "Q34261",
    "zone": "Ouest"
  },
  {
    "country": "IDN",
    "geometry": {
      "coordinates": [
        104.74808380347753,
        -2.9780931846768226
      ],
      "type": "Point"
    },
    "id": 196,
    "name": "Palembang",
    "pop_avg": 1595250.0,
    "pop_max": 1749000,
    "pop_min": 1441500,
    "rank": 4,
    "type": "Feature",
    "wiki": "Q8131",
    "zone": "Sumatera Selatan"
  },
  {
    "country": "IRN",
    "geometry": {
      "coordinates": [
        51.69809194128618,
        32.701951167679454
      ],
      "type": "Point"
    },
    "id": 197,
    "name": "Isfahan",
    "pop_avg": 1572883.0,
    "pop_max": 1628000,
    "pop_min": 1517766,
    "rank": 4,
    "type": "Feature",
    "wiki": "Q42053",
    "zone": "Esfahan"
  },
  {
    "country": "TUN",
    "geometry": {
      "coordinates": [
        10.179678099212026,
        36.80277813623144
      ],
      "type": "Point"
    },
    "id": 198,
    "name": "Tunis",
    "pop_avg": 1570476.5,
    "pop_max": 2412500,
    "pop_min": 728453,
    "rank": 4,
    "type": "Feature",
    "wiki": "Q3572",
    "zone": "Tunis"
  },
  {
    "country": "VEN",
    "geometry": {
      "coordinates": [
        -67.98196726329434,
        10.231927363878526
      ],
      "type": "Point"
    },
    "id": 199,
    "name": "Valencia",
    "pop_avg": 1569526.5,
    "pop_max": 1770000,
    "pop_min": 1369053,
    "rank": 4,
    "type": "Feature",
    "wiki": "Q54880",
    "zone": "Carabobo"
  },
  {
    "country": "ZWE",
    "geometry": {
      "coordinates": [
        31.042763572062825,
        -17.815843835777798
      ],
      "type": "Point"
    },
    "id": 200,
    "name": "Harare",
    "pop_avg": 1557406.5,
    "pop_max": 1572000,
    "pop_min": 1542813,
    "rank": 4,
    "type": "Feature",
    "wiki": "Q3921",
    "zone": "Harare"
  },
  {
    "country": "ECU",
    "geometry": {
      "coordinates": [
        -78.5019969671124,
        -0.2130423220355624
      ],
      "type": "Point"
    },
    "id": 201,
    "name": "Quito",
    "pop_avg": 1550407.0,
    "pop_max": 1701000,
    "pop_min": 1399814,
    "rank": 4,
    "type": "Feature",
    "wiki": "Q2900",
    "zone": "Pichincha"
  },
  {
    "country": "MDG",
    "geometry": {
      "coordinates": [
        47.51467804152986,
        -18.914691492032148
      ],
      "type": "Point"
    },
    "id": 202,
    "name": "Antananarivo",
    "pop_avg": 1544216.5,
    "pop_max": 1697000,
    "pop_min": 1391433,
    "rank": 4,
    "type": "Feature",
    "wiki": "Q3915",
    "zone": "Antananarivo"
  },
  {
    "country": "USA",
    "geometry": {
      "coordinates": [
        -80.00193125260023,
        40.43194445384313
      ],
      "type": "Point"
    },
    "id": 203,
    "name": "Pittsburgh",
    "pop_avg": 1535267.5,
    "pop_max": 1838000,
    "pop_min": 1232535,
    "rank": 4,
    "type": "Feature",
    "wiki": "Q1342",
    "zone": "Pennsylvania"
  },
  {
    "country": "GIN",
    "geometry": {
      "coordinates": [
        -13.682180886123945,
        9.53346870502179
      ],
      "type": "Point"
    },
    "id": 204,
    "name": "Conakry",
    "pop_avg": 1494000.0,
    "pop_max": 1494000,
    "pop_min": 1494000,
    "rank": 4,
    "type": "Feature",
    "wiki": "Q3733",
    "zone": "Conakry"
  },
  {
    "country": "PAK",
    "geometry": {
      "coordinates": [
        71.45306183068806,
        30.20192288804725
      ],
      "type": "Point"
    },
    "id": 205,
    "name": "Multan",
    "pop_avg": 1479615.0,
    "pop_max": 1522000,
    "pop_min": 1437230,
    "rank": 4,
    "type": "Feature",
    "wiki": "Q185453",
    "zone": "Punjab"
  },
  {
    "country": "CHN",
    "geometry": {
      "coordinates": [
        116.66807973451489,
        23.37195218489478
      ],
      "type": "Point"
    },
    "id": 206,
    "name": "Shantou",
    "pop_avg": 1467486.5,
    "pop_max": 1601000,
    "pop_min": 1333973,
    "rank": 4,
    "type": "Feature",
    "wiki": "Q59100",
    "zone": "Guangdong"
  },
  {
    "country": "KHM",
    "geometry": {
      "coordinates": [
        104.91468862118643,
        11.55197598855841
      ],
      "type": "Point"
    },
    "id": 207,
    "name": "Phnom Penh",
    "pop_avg": 1466000.0,
    "pop_max": 1466000,
    "pop_min": 1466000,
    "rank": 4,
    "type": "Feature",
    "wiki": "Q1850",
    "zone": "Phnom Penh"
  },
  {
    "country": "MEX",
    "geometry": {
      "coordinates": [
        -117.08194183217557,
        32.50196337470993
      ],
      "type": "Point"
    },
    "id": 208,
    "name": "Tijuana",
    "pop_avg": 1464728.5,
    "pop_max": 1553000,
    "pop_min": 1376457,
    "rank": 4,
    "type": "Feature",
    "wiki": "Q124739",
    "zone": "Baja California"
  },
  {
    "country": "USA",
    "geometry": {
      "coordinates": [
        -66.12997929041614,
        18.440023009204765
      ],
      "type": "Point"
    },
    "id": 209,
    "name": "San Juan",
    "pop_avg": 1437115.5,
    "pop_max": 2478905,
    "pop_min": 395326,
    "rank": 4,
    "type": "Feature",
    "wiki": "Q41211",
    "zone": ""
  },
  {
    "country": "PAK",
    "geometry": {
      "coordinates": [
        68.37304311322782,
        25.381932857103266
      ],
      "type": "Point"
    },
    "id": 210,
    "name": "Hyderabad",
    "pop_avg": 1422665.0,
    "pop_max": 1459000,
    "pop_min": 1386330,
    "rank": 4,
    "type": "Feature",
    "wiki": "Q1640079",
    "zone": "Sind"
  },
  {
    "country": "MLI",
    "geometry": {
      "coordinates": [
        -8.001984963249697,
        12.65196052632325
      ],
      "type": "Point"
    },
    "id": 211,
    "name": "Bamako",
    "pop_avg": 1395640.5,
    "pop_max": 1494000,
    "pop_min": 1297281,
    "rank": 4,
    "type": "Feature",
    "wiki": "Q3703",
    "zone": "Bamako"
  },
  {
    "country": "AUS",
    "geometry": {
      "coordinates": [
        153.03314687333204,
        -27.453085046753756
      ],
      "type": "Point"
    },
    "id": 212,
    "name": "Brisbane",
    "pop_avg": 1393176.5,
    "pop_max": 1860000,
    "pop_min": 926353,
    "rank": 4,
    "type": "Feature",
    "wiki": "Q34932",
    "zone": "Queensland"
  },
  {
    "country": "UGA",
    "geometry": {
      "coordinates": [
        32.581377667121046,
        0.318604813383331
      ],
      "type": "Point"
    },
    "id": 213,
    "name": "Kampala",
    "pop_avg": 1386594.5,
    "pop_max": 1420000,
    "pop_min": 1353189,
    "rank": 4,
    "type": "Feature",
    "wiki": "Q3894",
    "zone": "Kampala"
  },
  {
    "country": "ARG",
    "geometry": {
      "coordinates": [
        -64.18424041594841,
        -31.398012211483092
      ],
      "type": "Point"
    },
    "id": 214,
    "name": "C\u00f3rdoba",
    "pop_avg": 1374467.5,
    "pop_max": 1452000,
    "pop_min": 1296935,
    "rank": 4,
    "type": "Feature",
    "wiki": "Q44210",
    "zone": "C\u00f3rdoba"
  },
  {
    "country": "USA",
    "geometry": {
      "coordinates": [
        -98.50925119896328,
        29.48927904852593
      ],
      "type": "Point"
    },
    "id": 215,
    "name": "San Antonio",
    "pop_avg": 1364905.0,
    "pop_max": 1473000,
    "pop_min": 1256810,
    "rank": 4,
    "type": "Feature",
    "wiki": "Q975",
    "zone": "Texas"
  },
  {
    "country": "IDN",
    "geometry": {
      "coordinates": [
        110.4180736309741,
        -6.964671553833284
      ],
      "type": "Point"
    },
    "id": 216,
    "name": "Semarang",
    "pop_avg": 1342042.0,
    "pop_max": 1396000,
    "pop_min": 1288084,
    "rank": 4,
    "type": "Feature",
    "wiki": "Q11025",
    "zone": "Jawa Tengah"
  },
  {
    "country": "ZAF",
    "geometry": {
      "coordinates": [
        28.22748321723384,
        -25.704974695184433
      ],
      "type": "Point"
    },
    "id": 217,
    "name": "Pretoria",
    "pop_avg": 1338000.0,
    "pop_max": 1338000,
    "pop_min": 1338000,
    "rank": 4,
    "type": "Feature",
    "wiki": "Q3926",
    "zone": "Gauteng"
  },
  {
    "country": "CMR",
    "geometry": {
      "coordinates": [
        11.514704896854425,
        3.868646520754112
      ],
      "type": "Point"
    },
    "id": 218,
    "name": "Yaounde",
    "pop_avg": 1335793.5,
    "pop_max": 1611000,
    "pop_min": 1060587,
    "rank": 4,
    "type": "Feature",
    "wiki": "Q3808",
    "zone": "Centre"
  },
  {
    "country": "IND",
    "geometry": {
      "coordinates": [
        86.98138744138708,
        23.685279158613014
      ],
      "type": "Point"
    },
    "id": 219,
    "name": "Asansol",
    "pop_avg": 1328000.0,
    "pop_max": 1328000,
    "pop_min": 1328000,
    "rank": 4,
    "type": "Feature",
    "wiki": "Q202139",
    "zone": "West Bengal"
  },
  {
    "country": "IND",
    "geometry": {
      "coordinates": [
        76.94807525844436,
        11.001906205027637
      ],
      "type": "Point"
    },
    "id": 220,
    "name": "Coimbatore",
    "pop_avg": 1327911.5,
    "pop_max": 1696000,
    "pop_min": 959823,
    "rank": 4,
    "type": "Feature",
    "wiki": "Q9885",
    "zone": "Tamil Nadu"
  },
  {
    "country": "MOZ",
    "geometry": {
      "coordinates": [
        32.58721710397009,
        -25.953331628778983
      ],
      "type": "Point"
    },
    "id": 221,
    "name": "Maputo",
    "pop_avg": 1318806.5,
    "pop_max": 1446000,
    "pop_min": 1191613,
    "rank": 4,
    "type": "Feature",
    "wiki": "Q3889",
    "zone": "Maputo"
  },
  {
    "country": "PHL",
    "geometry": {
      "coordinates": [
        125.6280496238735,
        7.111962764256759
      ],
      "type": "Point"
    },
    "id": 222,
    "name": "Davao",
    "pop_avg": 1307252.0,
    "pop_max": 1402000,
    "pop_min": 1212504,
    "rank": 4,
    "type": "Feature",
    "wiki": "Q1473",
    "zone": "Davao Del Sur"
  },
  {
    "country": "ZMB",
    "geometry": {
      "coordinates": [
        28.28138173611427,
        -15.414698409335926
      ],
      "type": "Point"
    },
    "id": 223,
    "name": "Lusaka",
    "pop_avg": 1297720.0,
    "pop_max": 1328000,
    "pop_min": 1267440,
    "rank": 4,
    "type": "Feature",
    "wiki": "Q3881",
    "zone": "Lusaka"
  },
  {
    "country": "IND",
    "geometry": {
      "coordinates": [
        83.30303619596981,
        17.731960526343414
      ],
      "type": "Point"
    },
    "id": 224,
    "name": "Vishakhapatnam",
    "pop_avg": 1296089.0,
    "pop_max": 1529000,
    "pop_min": 1063178,
    "rank": 4,
    "type": "Feature",
    "wiki": "Q200016",
    "zone": "Andhra Pradesh"
  },
  {
    "country": "USA",
    "geometry": {
      "coordinates": [
        -121.851934914877,
        37.30192878814046
      ],
      "type": "Point"
    },
    "id": 225,
    "name": "San Jose",
    "pop_avg": 1281471.5,
    "pop_max": 1668000,
    "pop_min": 894943,
    "rank": 4,
    "type": "Feature",
    "wiki": "Q16553",
    "zone": "California"
  },
  {
    "country": "RUS",
    "geometry": {
      "coordinates": [
        60.59801381632178,
        56.851975785289085
      ],
      "type": "Point"
    },
    "id": 226,
    "name": "Yekaterinburg",
    "pop_avg": 1270488.0,
    "pop_max": 1313000,
    "pop_min": 1227976,
    "rank": 4,
    "type": "Feature",
    "wiki": "Q887",
    "zone": "Sverdlovsk"
  },
  {
    "country": "IDN",
    "geometry": {
      "coordinates": [
        119.43008168765073,
        -5.138013025180214
      ],
      "type": "Point"
    },
    "id": 227,
    "name": "Ujungpandang",
    "pop_avg": 1262000.0,
    "pop_max": 1262000,
    "pop_min": 1262000,
    "rank": 4,
    "type": "Feature",
    "wiki": "Q14634",
    "zone": "Sulawesi Selatan"
  },
  {
    "country": "CHN",
    "geometry": {
      "coordinates": [
        123.9880463686585,
        47.34692288811567
      ],
      "type": "Point"
    },
    "id": 228,
    "name": "Qiqihar",
    "pop_avg": 1261682.0,
    "pop_max": 1641000,
    "pop_min": 882364,
    "rank": 4,
    "type": "Feature",
    "wiki": "Q205922",
    "zone": "Heilongjiang"
  },
  {
    "country": "PAK",
    "geometry": {
      "coordinates": [
        71.53305694787582,
        34.00696195056224
      ],
      "type": "Point"
    },
    "id": 229,
    "name": "Peshawar",
    "pop_avg": 1260886.5,
    "pop_max": 1303000,
    "pop_min": 1218773,
    "rank": 4,
    "type": "Feature",
    "wiki": "Q1113311",
    "zone": "N.W.F.P."
  },
  {
    "country": "COG",
    "geometry": {
      "coordinates": [
        15.282743633848668,
        -4.257239913197509
      ],
      "type": "Point"
    },
    "id": 230,
    "name": "Brazzaville",
    "pop_avg": 1259445.0,
    "pop_max": 1355000,
    "pop_min": 1163890,
    "rank": 4,
    "type": "Feature",
    "wiki": "Q3844",
    "zone": "Pool"
  },
  {
    "country": "IND",
    "geometry": {
      "coordinates": [
        82.99809356901545,
        25.331935908860828
      ],
      "type": "Point"
    },
    "id": 231,
    "name": "Varanasi",
    "pop_avg": 1258202.0,
    "pop_max": 1352000,
    "pop_min": 1164404,
    "rank": 4,
    "type": "Feature",
    "wiki": "Q79980",
    "zone": "Uttar Pradesh"
  },
  {
    "country": "RUS",
    "geometry": {
      "coordinates": [
        43.99814850050001,
        56.334953080209004
      ],
      "type": "Point"
    },
    "id": 232,
    "name": "Nizhny Novgorod",
    "pop_avg": 1246463.0,
    "pop_max": 1278000,
    "pop_min": 1214926,
    "rank": 4,
    "type": "Feature",
    "wiki": "Q891",
    "zone": "Nizhegorod"
  },
  {
    "country": "IRN",
    "geometry": {
      "coordinates": [
        52.56806467891988,
        29.6319060016516
      ],
      "type": "Point"
    },
    "id": 233,
    "name": "Shiraz",
    "pop_avg": 1240000.0,
    "pop_max": 1240000,
    "pop_min": 1240000,
    "rank": 4,
    "type": "Feature",
    "wiki": "Q6397066",
    "zone": "Fars"
  },
  {
    "country": "CHN",
    "geometry": {
      "coordinates": [
        116.97803497540144,
        32.631929601924014
      ],
      "type": "Point"
    },
    "id": 234,
    "name": "Huainan",
    "pop_avg": 1239327.5,
    "pop_max": 1451000,
    "pop_min": 1027655,
    "rank": 4,
    "type": "Feature",
    "wiki": "Q360178",
    "zone": "Anhui"
  },
  {
    "country": "RUS",
    "geometry": {
      "coordinates": [
        82.95809601042157,
        55.03190600175333
      ],
      "type": "Point"
    },
    "id": 235,
    "name": "Novosibirsk",
    "pop_avg": 1213100.5,
    "pop_max": 1389000,
    "pop_min": 1037201,
    "rank": 4,
    "type": "Feature",
    "wiki": "Q883",
    "zone": "Novosibirsk"
  },
  {
    "country": "USA",
    "geometry": {
      "coordinates": [
        -122.68193593213289,
        45.521969681728024
      ],
      "type": "Point"
    },
    "id": 236,
    "name": "Portland",
    "pop_avg": 1207756.5,
    "pop_max": 1875000,
    "pop_min": 540513,
    "rank": 4,
    "type": "Feature",
    "wiki": "Q6106",
    "zone": "Oregon"
  },
  {
    "country": "BOL",
    "geometry": {
      "coordinates": [
        -68.15193104910219,
        -16.49602775504337
      ],
      "type": "Point"
    },
    "id": 237,
    "name": "La Paz",
    "pop_avg": 1201399.5,
    "pop_max": 1590000,
    "pop_min": 812799,
    "rank": 4,
    "type": "Feature",
    "wiki": "Q1491",
    "zone": "La Paz"
  },
  {
    "country": "USA",
    "geometry": {
      "coordinates": [
        -81.69694406998963,
        41.47193265371732
      ],
      "type": "Point"
    },
    "id": 238,
    "name": "Cleveland",
    "pop_avg": 1169757.0,
    "pop_max": 1890000,
    "pop_min": 449514,
    "rank": 4,
    "type": "Feature",
    "wiki": "Q37320",
    "zone": "Ohio"
  },
  {
    "country": "IND",
    "geometry": {
      "coordinates": [
        74.86804718226409,
        31.641938350292605
      ],
      "type": "Point"
    },
    "id": 239,
    "name": "Amritsar",
    "pop_avg": 1152225.0,
    "pop_max": 1212000,
    "pop_min": 1092450,
    "rank": 4,
    "type": "Feature",
    "wiki": "Q48403",
    "zone": "Punjab"
  },
  {
    "country": "USA",
    "geometry": {
      "coordinates": [
        -115.22195200469417,
        36.21194364002429
      ],
      "type": "Point"
    },
    "id": 240,
    "name": "Las Vegas",
    "pop_avg": 1150717.0,
    "pop_max": 1823000,
    "pop_min": 478434,
    "rank": 4,
    "type": "Feature",
    "wiki": "Q23768",
    "zone": "Nevada"
  },
  {
    "country": "COD",
    "geometry": {
      "coordinates": [
        27.478071596137113,
        -11.678078943175194
      ],
      "type": "Point"
    },
    "id": 241,
    "name": "Lubumbashi",
    "pop_avg": 1114317.0,
    "pop_max": 1352000,
    "pop_min": 876634,
    "rank": 4,
    "type": "Feature",
    "wiki": "Q187593",
    "zone": "Katanga"
  },
  {
    "country": "IND",
    "geometry": {
      "coordinates": [
        78.11808136196464,
        9.921972122992088
      ],
      "type": "Point"
    },
    "id": 242,
    "name": "Madurai",
    "pop_avg": 1101954.0,
    "pop_max": 1294000,
    "pop_min": 909908,
    "rank": 4,
    "type": "Feature",
    "wiki": "Q228405",
    "zone": "Tamil Nadu"
  },
  {
    "country": "TGO",
    "geometry": {
      "coordinates": [
        1.22081126074562,
        6.133882930268385
      ],
      "type": "Point"
    },
    "id": 243,
    "name": "Lom\u00e9",
    "pop_avg": 1100850.0,
    "pop_max": 1452000,
    "pop_min": 749700,
    "rank": 4,
    "type": "Feature",
    "wiki": "Q3792",
    "zone": "Maritime"
  },
  {
    "country": "SRB",
    "geometry": {
      "coordinates": [
        20.466044822020535,
        44.82059130444674
      ],
      "type": "Point"
    },
    "id": 244,
    "name": "Belgrade",
    "pop_avg": 1099000.0,
    "pop_max": 1099000,
    "pop_min": 1099000,
    "rank": 4,
    "type": "Feature",
    "wiki": "Q3711",
    "zone": "Grad Beograd"
  },
  {
    "country": "ARM",
    "geometry": {
      "coordinates": [
        44.51160553175208,
        40.18309659414189
      ],
      "type": "Point"
    },
    "id": 245,
    "name": "Yerevan",
    "pop_avg": 1097742.5,
    "pop_max": 1102000,
    "pop_min": 1093485,
    "rank": 4,
    "type": "Feature",
    "wiki": "Q1953",
    "zone": "Erevan"
  },
  {
    "country": "IND",
    "geometry": {
      "coordinates": [
        81.43138744138724,
        21.218612558613017
      ],
      "type": "Point"
    },
    "id": 246,
    "name": "Bhilai",
    "pop_avg": 1097000.0,
    "pop_max": 1097000,
    "pop_min": 1097000,
    "rank": 4,
    "type": "Feature",
    "wiki": "Q242144",
    "zone": "Chhattisgarh"
  },
  {
    "country": "KAZ",
    "geometry": {
      "coordinates": [
        76.91309031378273,
        43.326935705482356
      ],
      "type": "Point"
    },
    "id": 247,
    "name": "Almaty",
    "pop_avg": 1096256.0,
    "pop_max": 1209000,
    "pop_min": 983512,
    "rank": 4,
    "type": "Feature",
    "wiki": "Q35493",
    "zone": "Almaty"
  },
  {
    "country": "JOR",
    "geometry": {
      "coordinates": [
        35.93135406687412,
        31.951971105827454
      ],
      "type": "Point"
    },
    "id": 248,
    "name": "Amman",
    "pop_avg": 1060000.0,
    "pop_max": 1060000,
    "pop_min": 1060000,
    "rank": 4,
    "type": "Feature",
    "wiki": "Q3805",
    "zone": "Amman"
  },
  {
    "country": "GEO",
    "geometry": {
      "coordinates": [
        44.788849590997984,
        41.72695584707759
      ],
      "type": "Point"
    },
    "id": 249,
    "name": "Tbilisi",
    "pop_avg": 1052628.5,
    "pop_max": 1100000,
    "pop_min": 1005257,
    "rank": 4,
    "type": "Feature",
    "wiki": "Q994",
    "zone": "Tbilisi"
  },
  {
    "country": "USA",
    "geometry": {
      "coordinates": [
        -121.47198394645096,
        38.57696724029415
      ],
      "type": "Point"
    },
    "id": 250,
    "name": "Sacramento",
    "pop_avg": 1035949.0,
    "pop_max": 1604000,
    "pop_min": 467898,
    "rank": 4,
    "type": "Feature",
    "wiki": "Q18013",
    "zone": "California"
  },
  {
    "country": "BGR",
    "geometry": {
      "coordinates": [
        23.314708152110086,
        42.68529528393054
      ],
      "type": "Point"
    },
    "id": 251,
    "name": "Sofia",
    "pop_avg": 1029913.5,
    "pop_max": 1185000,
    "pop_min": 874827,
    "rank": 4,
    "type": "Feature",
    "wiki": "Q472",
    "zone": "Grad Sofiya"
  },
  {
    "country": "RUS",
    "geometry": {
      "coordinates": [
        49.12439890742161,
        55.75188789465966
      ],
      "type": "Point"
    },
    "id": 252,
    "name": "Kazan",
    "pop_avg": 1013635.0,
    "pop_max": 1115000,
    "pop_min": 912270,
    "rank": 4,
    "type": "Feature",
    "wiki": "Q900",
    "zone": "Tatarstan"
  },
  {
    "country": "CAN",
    "geometry": {
      "coordinates": [
        -114.08194407011933,
        51.084937617948356
      ],
      "type": "Point"
    },
    "id": 253,
    "name": "Calgary",
    "pop_avg": 1012661.0,
    "pop_max": 1110000,
    "pop_min": 915322,
    "rank": 4,
    "type": "Feature",
    "wiki": "Q36312",
    "zone": "Alberta"
  },
  {
    "country": "GTM",
    "geometry": {
      "coordinates": [
        -90.52891143656154,
        14.623080521448173
      ],
      "type": "Point"
    },
    "id": 254,
    "name": "Guatemala",
    "pop_avg": 1009469.0,
    "pop_max": 1024000,
    "pop_min": 994938,
    "rank": 4,
    "type": "Feature",
    "wiki": "Q1555",
    "zone": "Guatemala"
  },
  {
    "country": "RUS",
    "geometry": {
      "coordinates": [
        50.14934926549864,
        53.196953405717295
      ],
      "type": "Point"
    },
    "id": 255,
    "name": "Samara",
    "pop_avg": 996595.0,
    "pop_max": 1137000,
    "pop_min": 856190,
    "rank": 4,
    "type": "Feature",
    "wiki": "Q894",
    "zone": "Samara"
  },
  {
    "country": "BFA",
    "geometry": {
      "coordinates": [
        -1.5266696149164432,
        12.372261836543373
      ],
      "type": "Point"
    },
    "id": 256,
    "name": "Ouagadougou",
    "pop_avg": 992228.5,
    "pop_max": 1149000,
    "pop_min": 835457,
    "rank": 4,
    "type": "Feature",
    "wiki": "Q3777",
    "zone": "Kadiogo"
  },
  {
    "country": "AUS",
    "geometry": {
      "coordinates": [
        138.59805898264926,
        -34.93304191527346
      ],
      "type": "Point"
    },
    "id": 257,
    "name": "Adelaide",
    "pop_avg": 990677.0,
    "pop_max": 1145000,
    "pop_min": 836354,
    "rank": 4,
    "type": "Feature",
    "wiki": "Q5112",
    "zone": "South Australia"
  },
  {
    "country": "SOM",
    "geometry": {
      "coordinates": [
        45.36473175245874,
        2.068627192947531
      ],
      "type": "Point"
    },
    "id": 258,
    "name": "Mogadishu",
    "pop_avg": 987694.0,
    "pop_max": 1100000,
    "pop_min": 875388,
    "rank": 4,
    "type": "Feature",
    "wiki": "Q2449",
    "zone": "Banaadir"
  },
  {
    "country": "AGO",
    "geometry": {
      "coordinates": [
        15.758063458069444,
        -12.748039473778306
      ],
      "type": "Point"
    },
    "id": 259,
    "name": "Huambo",
    "pop_avg": 986000.0,
    "pop_max": 1100000,
    "pop_min": 872000,
    "rank": 4,
    "type": "Feature",
    "wiki": "Q207322",
    "zone": "Huambo"
  },
  {
    "country": "USA",
    "geometry": {
      "coordinates": [
        -87.92191294208499,
        43.05460090730418
      ],
      "type": "Point"
    },
    "id": 260,
    "name": "Milwaukee",
    "pop_avg": 983590.0,
    "pop_max": 1388000,
    "pop_min": 579180,
    "rank": 4,
    "type": "Feature",
    "wiki": "Q37836",
    "zone": "Wisconsin"
  },
  {
    "country": "MAR",
    "geometry": {
      "coordinates": [
        -5.00232309800316,
        34.0565454873464
      ],
      "type": "Point"
    },
    "id": 261,
    "name": "Fez",
    "pop_avg": 983445.5,
    "pop_max": 1002000,
    "pop_min": 964891,
    "rank": 4,
    "type": "Feature",
    "wiki": "Q80985",
    "zone": "F\u00e8s - Boulemane"
  },
  {
    "country": "CAN",
    "geometry": {
      "coordinates": [
        -75.70196115980951,
        45.41864265536043
      ],
      "type": "Point"
    },
    "id": 262,
    "name": "Ottawa",
    "pop_avg": 978564.5,
    "pop_max": 1145000,
    "pop_min": 812129,
    "rank": 4,
    "type": "Feature",
    "wiki": "Q1930",
    "zone": "Ontario"
  },
  {
    "country": "USA",
    "geometry": {
      "coordinates": [
        -84.45886850847734,
        39.16383064361685
      ],
      "type": "Point"
    },
    "id": 263,
    "name": "Cincinnati",
    "pop_avg": 971191.0,
    "pop_max": 1636000,
    "pop_min": 306382,
    "rank": 4,
    "type": "Feature",
    "wiki": "Q43196",
    "zone": "Ohio"
  },
  {
    "country": "RUS",
    "geometry": {
      "coordinates": [
        56.03808543088684,
        54.79192065018958
      ],
      "type": "Point"
    },
    "id": 264,
    "name": "Ufa",
    "pop_avg": 969378.0,
    "pop_max": 1018000,
    "pop_min": 920756,
    "rank": 4,
    "type": "Feature",
    "wiki": "Q911",
    "zone": "Bashkortostan"
  },
  {
    "country": "IND",
    "geometry": {
      "coordinates": [
        86.19557281707512,
        22.789481278316885
      ],
      "type": "Point"
    },
    "id": 265,
    "name": "Jamshedpur",
    "pop_avg": 958169.0,
    "pop_max": 1300000,
    "pop_min": 616338,
    "rank": 4,
    "type": "Feature",
    "wiki": "Q200054",
    "zone": "Jharkhand"
  },
  {
    "country": "ESP",
    "geometry": {
      "coordinates": [
        -5.980007366347422,
        37.40501527816093
      ],
      "type": "Point"
    },
    "id": 266,
    "name": "Seville",
    "pop_avg": 957533.0,
    "pop_max": 1212045,
    "pop_min": 703021,
    "rank": 4,
    "type": "Feature",
    "wiki": "Q8717",
    "zone": "Andaluc\u00eda"
  },
  {
    "country": "FRA",
    "geometry": {
      "coordinates": [
        4.828084616879835,
        45.7719544229401
      ],
      "type": "Point"
    },
    "id": 267,
    "name": "Lyon",
    "pop_avg": 947658.5,
    "pop_max": 1423000,
    "pop_min": 472317,
    "rank": 4,
    "type": "Feature",
    "wiki": "Q456",
    "zone": "Rh\u00f4ne-Alpes"
  },
  {
    "country": "PRY",
    "geometry": {
      "coordinates": [
        -57.643451027901335,
        -25.294457117057675
      ],
      "type": "Point"
    },
    "id": 268,
    "name": "Asunci\u00f3n",
    "pop_avg": 940846.5,
    "pop_max": 1870000,
    "pop_min": 11693,
    "rank": 4,
    "type": "Feature",
    "wiki": "Q2933",
    "zone": "Asunci\u00f3n"
  },
  {
    "country": "RUS",
    "geometry": {
      "coordinates": [
        56.248046775288685,
        58.0019055948639
      ],
      "type": "Point"
    },
    "id": 269,
    "name": "Perm",
    "pop_avg": 924154.0,
    "pop_max": 997000,
    "pop_min": 851308,
    "rank": 4,
    "type": "Feature",
    "wiki": "Q915",
    "zone": "Perm'"
  },
  {
    "country": "NIC",
    "geometry": {
      "coordinates": [
        -86.27043751890119,
        12.154962438756115
      ],
      "type": "Point"
    },
    "id": 270,
    "name": "Managua",
    "pop_avg": 920000.0,
    "pop_max": 920000,
    "pop_min": 920000,
    "rank": 4,
    "type": "Feature",
    "wiki": "Q3274",
    "zone": "Managua"
  },
  {
    "country": "ISR",
    "geometry": {
      "coordinates": [
        35.20662593459866,
        31.778407815573303
      ],
      "type": "Point"
    },
    "id": 271,
    "name": "Jerusalem",
    "pop_avg": 915150.0,
    "pop_max": 1029300,
    "pop_min": 801000,
    "rank": 4,
    "type": "Feature",
    "wiki": "Q1218",
    "zone": "Jerusalem"
  },
  {
    "country": "CHN",
    "geometry": {
      "coordinates": [
        101.76805898250205,
        36.62194445382801
      ],
      "type": "Point"
    },
    "id": 272,
    "name": "Xining",
    "pop_avg": 907765.5,
    "pop_max": 1048000,
    "pop_min": 767531,
    "rank": 4,
    "type": "Feature",
    "wiki": "Q69060",
    "zone": "Gansu"
  },
  {
    "country": "HND",
    "geometry": {
      "coordinates": [
        -87.2194751979415,
        14.103990759076396
      ],
      "type": "Point"
    },
    "id": 273,
    "name": "Tegucigalpa",
    "pop_avg": 898424.0,
    "pop_max": 946000,
    "pop_min": 850848,
    "rank": 4,
    "type": "Feature",
    "wiki": "Q3238",
    "zone": "Francisco Moraz\u00e1n"
  },
  {
    "country": "NPL",
    "geometry": {
      "coordinates": [
        85.31469635222788,
        27.718637772477223
      ],
      "type": "Point"
    },
    "id": 274,
    "name": "Kathmandu",
    "pop_avg": 895000.0,
    "pop_max": 895000,
    "pop_min": 895000,
    "rank": 4,
    "type": "Feature",
    "wiki": "Q3037",
    "zone": "Bhaktapur"
  },
  {
    "country": "COL",
    "geometry": {
      "coordinates": [
        -75.51633941501717,
        10.401684443957492
      ],
      "type": "Point"
    },
    "id": 275,
    "name": "Cartagena",
    "pop_avg": 887000.0,
    "pop_max": 887000,
    "pop_min": 887000,
    "rank": 4,
    "type": "Feature",
    "wiki": "Q657461",
    "zone": "Bol\u00edvar"
  },
  {
    "country": "GBR",
    "geometry": {
      "coordinates": [
        -4.252653094744971,
        55.87635058183474
      ],
      "type": "Point"
    },
    "id": 276,
    "name": "Glasgow",
    "pop_avg": 885134.0,
    "pop_max": 1160000,
    "pop_min": 610268,
    "rank": 4,
    "type": "Feature",
    "wiki": "Q4093",
    "zone": "Glasgow"
  },
  {
    "country": "TJK",
    "geometry": {
      "coordinates": [
        68.77387935270173,
        38.56003521631658
      ],
      "type": "Point"
    },
    "id": 277,
    "name": "Dushanbe",
    "pop_avg": 882822.0,
    "pop_max": 1086244,
    "pop_min": 679400,
    "rank": 4,
    "type": "Feature",
    "wiki": "Q9365",
    "zone": "Tadzhikistan Territories"
  },
  {
    "country": "LBY",
    "geometry": {
      "coordinates": [
        20.06477732527412,
        32.11867927640111
      ],
      "type": "Point"
    },